Timestamp,Roll,Pitch,Yaw,Acc_X,Acc_Y,Acc_Z,USBL_X,USBL_Y,Depth,Est_X,Est_Y,Est_Z,Temp,State_6,State_7,State_8,Gyro_X,Gyro_Y,Gyro_Z,Mag_X,Mag_Y,Mag_Z
1586441960.16,174.415847778,-51.8119621277,176.238296509,0,0,0,0.5568,8.2989,0.597559646672,0.5568,8.2989,0.597559646672,24.51,0,0,0,,,,,,
1586441960.4,175.068893433,-51.5272789001,176.005493164,7.67451524734,0.806437730789,-6.04105377197,0,0,0,0.556799999948,8.29890000164,-0.597559646427,24.48,-8.96079573232e-07,2.8324081005e-05,4.2293142814e-06,-0.0718087032437,-0.023889541626,0.0311113893986,-0.436765909195,0.385654687881,0.5701379776
1586441960.66,174.454742432,-51.9419822693,174.885513306,7.67836284637,0.707715809345,-6.07854509354,0,0,0,0.55680008356,8.29890136675,-0.597559806159,24.46,-5.86184436564e-06,4.07832212799e-05,-1.53425814244e-06,-0.13313741982,0.067662447691,0.104486219585,-0.436939954758,0.374625921249,0.578600168228
1586441960.92,175.76184082,-53.1519737244,172.962554932,7.79136562347,0.0706680417061,-5.7175655365,0,0,0,0.556799464685,8.29890051869,-0.5975620309,24.43,-1.21866408144e-05,3.66342205403e-06,1.39267811919e-05,0.0846095532179,0.113313660026,0.0847496315837,-0.436558008194,0.381309747696,0.568744182587
1586441961.17,177.523590088,-54.191619873,172.886047363,7.64315891266,0.0929261818528,-5.25906324387,0,0,0,0.556793058035,8.29889677171,-0.59758134801,24.41,-4.45650891306e-05,-1.22479974226e-05,6.28887078664e-05,0.140879318118,0.0340349972248,-0.0452935807407,-0.442992448807,0.406098842621,0.54491186142
1586441961.6,178.191970825,-54.1831016541,171.302642822,8.25690841675,0.046292938292,-5.81786441803,0,0,0,0.556775676202,8.29888171426,-0.597591955493,24.35,-1.33803430043e-05,-2.63234220746e-05,5.47849139305e-05,0.042038410902,0.0592537298799,0.141709312797,-0.436383247375,0.407762050629,0.547889232635
1586441961.86,-179.562255859,-54.6651535034,169.48425293,8.2420425415,-0.146167114377,-5.42830657959,0,0,0,0.556728660359,8.29885923106,-0.597604113342,24.32,1.13914764997e-05,-3.71144834358e-05,8.07647902184e-05,0.0439457632601,0.00192150473595,0.0505410172045,-0.431250333786,0.428045511246,0.53292131424
1586441962.12,-179.123184204,-54.4538154602,168.856933594,8.1478061676,0.125770866871,-5.495013237,0,0,0,0.556658636111,8.29887160793,-0.597617279985,24.3,2.85763640841e-05,-1.45990618726e-05,0.000102918700108,-0.0571042336524,-0.0272810459137,0.034748762846,-0.4275431633,0.426671266556,0.540653705597
1586441962.37,-178.77003479,-54.5036277771,167.727096558,8.1315574646,0.111791826785,-5.62423753738,0,0,0,0.556580557889,8.29890342801,-0.597615839343,24.28,4.36096752177e-05,1.02859772383e-05,0.000110662845909,-0.0447675623,0.0443883240223,0.0909127369523,-0.420860290527,0.423374414444,0.548645973206
1586441962.8,-178.116195679,-55.3423194885,165.655914307,8.04301071167,-0.175993263721,-5.338555336,-0.3441,8.1879,0.575758133858,0.556413855303,8.29890674403,-0.597688363013,24.22,4.10515151023e-05,1.10910891368e-05,0.000137390705405,0.0324510075152,-0.100596249104,0.0207833945751,-0.421682834625,0.427696466446,0.546277523041
1586441963.06,-177.709564209,-53.9047927856,165.552520752,8.00885486603,-0.104962125421,-5.74568367004,0,0,0,0.556295257229,8.29894655484,-0.597694124079,24.2,4.96150526818e-05,2.48085155539e-05,0.000140792466106,-0.0190854072571,-0.138369217515,-0.00604093074799,-0.410201787949,0.436825990677,0.558796167374
1586441963.32,-178.165802002,-52.3814315796,165.297225952,7.97662591934,0.35221773386,-6.08908033371,0,0,0,0.55614801272,8.29916637267,-0.597582917196,24.18,7.18296530668e-05,8.43357498671e-05,0.000129650927084,-0.0880390480161,-0.120452068746,0.0766508281231,-0.393870830536,0.427673578262,0.585183620453
1586441963.57,-176.614944458,-51.4932899475,162.588226318,7.82540512085,-0.261504381895,-6.11851644516,0,0,0,0.555983823343,8.29924132798,-0.597511889036,24.16,8.78487329744e-05,9.52546539431e-05,0.000127554181852,-0.0193029642105,-0.0410139672458,0.197020947933,-0.369355201721,0.436305522919,0.601152658463
1586441963.99,-174.52494812,-50.3545951843,159.591629028,7.65267896652,-0.801656663418,-6.1585559845,0,0,0,0.555684944184,8.29917303672,-0.597510701604,24.11,9.85579409538e-05,7.23994928152e-05,0.000135879037985,0.006095320452,0.0360630489886,0.0199161469936,-0.342569589615,0.438551664352,0.620198011398
1586441964.26,-173.539260864,-50.6250076294,159.202697754,7.42955780029,-1.03701090813,-5.7376332283,0,0,0,0.555348414881,8.29900456135,-0.597872922806,24.09,8.09032284094e-05,3.45246774554e-05,0.000186370231426,0.0641755759716,-0.0151008395478,-0.0118315238506,-0.349946260452,0.462625265121,0.605925559998
1586441964.52,-174.031677246,-50.2791175842,159.976135254,7.62097263336,-0.214498251677,-6.08039045334,0,0,0,0.554933590833,8.29936451342,-0.597855846909,24.08,8.90861866376e-05,8.405740184e-05,0.000204147424826,-0.0818908289075,-0.0365763902664,-0.0026062130928,-0.3522336483,0.476633071899,0.606771469116
1586441964.77,-174.022033691,-50.5673332214,158.011566162,7.79351377487,-0.317798942327,-6.50214385986,0,0,0,0.554743157687,8.29964310907,-0.597459356076,24.06,0.000113377124013,0.000121776021824,0.000169689315585,-0.166513055563,0.112373404205,0.209272682667,-0.342081546783,0.47744011879,0.619045972824
1586441965.2,-171.253860474,-51.9353713989,148.647766113,7.85986185074,-0.72420668602,-6.16491270065,0,0,0,0.554334894336,8.29986305047,-0.597082167581,24.01,0.000128760958649,0.000144411544985,0.000148339527547,-0.057789683342,0.0427238680422,0.146561101079,-0.316615581512,0.458176612854,0.644818544388
1586441965.46,-169.146835327,-52.719039917,146.072036743,7.57120084763,-0.90753698349,-5.50487565994,-0.7456,8.1405,0.58764986812,0.553711335006,8.30030568375,-0.597397108386,24.01,0.000105485418501,0.000169797237158,0.00019254218785,0.0594101920724,0.0883661434054,0.114078089595,-0.315280199051,0.466082334518,0.630172967911
1586441965.71,-165.887176514,-52.6198883057,144.14680481,7.44888544083,-1.05099916458,-5.32331037521,0,0,0,0.552985036034,8.30118302904,-0.597869902163,23.99,6.46008593805e-05,0.000216753314324,0.000245711994046,0.203984245658,-0.057923797518,0.0976122915745,-0.305495738983,0.499400138855,0.611177206039
1586441965.97,-161.773681641,-51.0944252014,142.651199341,7.85453176498,-1.51991438866,-5.69281101227,0,0,0,0.551997165017,8.30177134424,-0.597485797335,23.97,9.01592231295e-05,0.000264681549211,0.000264673626289,0.275353401899,-0.119660794735,0.148686036468,-0.274909496307,0.543400764465,0.585479259491
1586441966.4,-161.236694336,-49.0002212524,146.508453369,7.50660228729,-2.32738232613,-5.96452856064,0,0,0,0.550988357518,8.30168111387,-0.597630995003,23.93,0.000102072971005,0.000234035770515,0.000280384881332,-0.278669595718,-0.182065337896,-0.239208355546,-0.260926485062,0.575517892838,0.559329032898
1586441966.66,-169.808807373,-47.5081253052,151.119750977,7.43393754959,-1.37114298344,-6.90496253967,0,0,0,0.550966546747,8.30129247297,-0.597100512459,23.92,0.000125754912023,0.0002102108194,0.000234689176105,-0.576043188572,-0.16665610671,-0.197754845023,-0.269582748413,0.502991676331,0.632829666138
1586441966.91,-178.841308594,-46.7197914124,154.379638672,7.29776239395,-0.648185074329,-6.84705018997,0,0,0,0.550805939017,8.30034611906,-0.597252589636,23.91,0.000144213424663,0.000148379930242,0.000220146079714,-0.537590682507,-0.0198632478714,-0.183230638504,-0.290611982346,0.406937122345,0.705042362213
1586441967.17,174.08013916,-46.4999847412,157.682876587,7.17375802994,0.475196063519,-6.12219142914,0,0,0,0.549259889459,8.30007862469,-0.598354338719,23.89,0.000150861011141,0.000121482296972,0.000292586460908,-0.307220160961,-0.0418901406229,-0.200660526752,-0.313733816147,0.321898460388,0.746830224991
1586441967.59,170.787277222,-46.4260177612,155.337020874,7.09349822998,1.14154434204,-6.13380813599,0,0,0,0.547097904895,8.30043963852,-0.599481115574,23.86,0.000148799001387,0.000128671492548,0.000359481907977,0.131278499961,-0.0266090072691,0.283322513103,-0.310458898544,0.244009256363,0.805827617645
1586441967.85,176.241485596,-45.8387908936,151.238128662,6.95296287537,0.631133019924,-6.2923951149,0,0,0,0.545180824279,8.30117283374,-0.600644796746,23.85,0.000137960627115,0.000151296270252,0.000425042792773,0.224233448505,-0.145748272538,0.218661904335,-0.276475906372,0.295344352722,0.789589881897
1586441968.11,179.93208313,-43.785736084,148.047210693,6.84011745453,0.100255422294,-7.14929008484,-0.9969,7.9813,0.550983687479,0.54373123345,8.30132891016,-0.600604618144,23.85,0.000157880691193,0.000165052777718,0.000431415816427,-0.0158324837685,-0.192609459162,0.161480173469,-0.233180522919,0.342406988144,0.794853210449
1586441968.36,-179.760345459,-42.1476211548,146.277709961,6.97692394257,-0.109539248049,-7.51674747467,0,0,0,0.542782628911,8.30051713488,-0.599651492148,23.83,0.000206779133697,0.00015514320455,0.000401292791748,-0.099700704217,-0.0985369309783,0.081979483366,-0.202582836151,0.345026731491,0.810379266739
1586441968.79,173.630889893,-40.0417480469,150.306350708,6.2855386734,0.583024203777,-7.29233789444,0,0,0,0.541097349513,8.29983644237,-0.600999682388,23.79,0.000203168694631,0.000123353471542,0.000423395764261,-0.101852424443,-0.0501811541617,-0.180432200432,-0.205228090286,0.276090860367,0.847869157791
1586441969.05,171.410217285,-39.7315864563,152.523422241,6.4114780426,1.04485487938,-7.49024438858,0,0,0,0.539985313442,8.29927108531,-0.601057116681,23.79,0.00022079468739,0.000112829150502,0.000419838962362,-0.0871673300862,0.0370033159852,-0.111444316804,-0.209404468536,0.244518041611,0.850079298019
1586441969.3,168.499389648,-40.5310058594,154.249160767,6.57462835312,1.37753975391,-7.24885749817,0,0,0,0.53844229557,8.2984319583,-0.601192186396,23.78,0.000245993644984,9.87655240051e-05,0.000427543185485,-0.239543646574,0.118009023368,-0.0886291489005,-0.226883649826,0.204631567001,0.852938890457
1586441969.56,163.891082764,-41.7912521362,155.97164917,6.68943691254,2.09992980957,-6.80888223648,0,0,0,0.536133297181,8.29831272569,-0.601639172118,23.77,0.000265170538802,0.000107725550256,0.000455929006347,-0.348860114813,0.129885226488,-0.0702828392386,-0.257818698883,0.140562772751,0.855540752411
1586441969.99,160.894119263,-41.873462677,157.476547241,6.75097322464,2.39243030548,-6.49285745621,0,0,0,0.531970657302,8.29767041387,-0.602961572461,23.73,0.000291296331569,0.000107777759945,0.000509733081668,0.103867799044,-0.104719407856,-0.037428740412,-0.280877113342,0.0995271205902,0.869836568832
1586441970.25,161.383239746,-40.3231582642,157.595321655,6.43274641037,2.58906602859,-6.46772670746,0,0,0,0.527631995563,8.2981667414,-0.605077738999,23.73,0.000302040067306,0.000134081117725,0.000591461846704,-0.00957995746285,-0.168588757515,-0.0322908200324,-0.25838971138,0.102538108826,0.882206678391
1586441970.51,161.596679688,-38.0137786865,156.413574219,6.29386329651,2.69805169106,-7.08249425888,0,0,0,0.523767574246,8.2986449412,-0.605399733151,23.71,0.000334972108668,0.000167972183386,0.000624916177128,-0.0825196504593,-0.238914817572,0.0572137646377,-0.215771198273,0.0963945388794,0.897760391235
1586441970.76,161.94934082,-35.9537849426,154.230529785,6.09650325775,2.59032344818,-7.48722982407,0,0,0,0.520360924308,8.29833972857,-0.604888828253,23.71,0.000379257242957,0.000185012668518,0.000633597987728,-0.0812262445688,-0.205294832587,0.110592707992,-0.173748254776,0.0963001251221,0.903428554535
1586441971.2,161.328659058,-33.096496582,148.016036987,5.44197797775,2.61590099335,-7.33964014053,0,0,0,0.515027695371,8.29724581876,-0.60777540208,23.68,0.000390368506559,0.000182811624117,0.000693918905486,-0.194183021784,-0.166557729244,0.0921569988132,-0.0877940654755,0.0380442142487,0.944589614868
1586441971.46,160.336288452,-31.6962966919,145.893096924,5.20323181152,2.93990755081,-7.6080827713,0,0,0,0.511425520506,8.29728138782,-0.609463747128,23.68,0.000396636256548,0.000200357310214,0.000728291065124,-0.197278007865,-0.148324668407,0.122254364192,-0.0522584915161,0.00394916534424,0.956166505814
1586441971.71,159.554626465,-31.6036586761,143.820068359,5.13782691956,2.9058842659,-7.7194609642,0,0,0,0.508909442954,8.29659441826,-0.610987774141,23.67,0.000395889580539,0.000198448311726,0.000743462915783,-0.117482244968,0.019562991336,0.154996678233,-0.0377736091614,-0.0281455516815,0.960028648376
1586441971.97,159.484191895,-32.6888160706,142.528137207,5.38987445831,2.99125885963,-7.50214910507,0,0,0,0.504956523407,8.29621611901,-0.612587195403,23.65,0.000408048197062,0.000211585117236,0.000775214221864,-0.0553086474538,0.0631965771317,0.09560957551,-0.0442178249359,-0.0396385192871,0.956961631775
1586441972.4,159.016204834,-36.0261230469,141.453094482,6.00758218765,2.78360319138,-7.27414798737,0,0,0,0.499289904015,8.29394171792,-0.613688409799,23.62,0.00044052143764,0.000203446870694,0.00079397227327,0.0789545550942,0.020927939564,0.0968493670225,-0.0901229381561,-0.0644915103912,0.949501991272
1586441972.66,160.371780396,-36.321346283,140.356719971,6.13049507141,2.37205147743,-7.53114509583,0,0,0,0.496388551013,8.29016572722,-0.612781563305,23.62,0.000484543323733,0.000163976225447,0.00078228341116,-0.00710785388947,0.00327155017294,0.0522218644619,-0.0894696712494,-0.0523254871368,0.941017627716
1586441972.91,159.271087646,-36.8160057068,140.818328857,6.20949029922,2.31920099258,-7.58679866791,0,0,0,0.494894369996,8.28488438629,-0.610878170335,23.62,0.000530286289347,9.95682152825e-05,0.000748889795271,-0.121818497777,0.107546910644,-0.0728264525533,-0.0978565216064,-0.0661811828613,0.937940835953
1586441973.17,156.65171814,-37.7734375,143.056167603,6.09229040146,2.73787617683,-7.06478786469,0,0,0,0.492626486104,8.28078846773,-0.611860108186,23.61,0.00054153593307,5.24011500928e-05,0.000756820920354,-0.10061711818,0.144622474909,-0.128862276673,-0.118917942047,-0.0910210609436,0.934602499008
1586441973.6,152.109008789,-40.4204063416,146.207351685,6.42902612686,3.62121677399,-6.03602218628,0,0,0,0.483606377709,8.27904081133,-0.615906123801,23.57,0.000550784496022,7.02928496149e-05,0.000837254798156,0.00282302522101,-0.0445887483656,0.0687770545483,-0.174870014191,-0.141267061234,0.912762880325
1586441973.86,153.416427612,-39.7949485779,145.022888184,6.48580646515,3.44463062286,-6.62478065491,0,0,0,0.478203306787,8.27750947061,-0.615906158553,23.58,0.00057985307334,8.02974781009e-05,0.000854036824877,0.0684775412083,-0.0936284586787,0.0178791582584,-0.156800746918,-0.133087158203,0.913996696472
1586441974.12,154.989501953,-39.1790428162,144.608139038,6.41486930847,3.23557066917,-6.81366014481,0,0,0,0.472979663983,8.27546152034,-0.615631838044,23.57,0.000610552106775,8.30370696746e-05,0.000865451837245,0.160261228681,-0.0255718789995,-0.00765919685364,-0.147552013397,-0.113140106201,0.917388439178
1586441974.38,156.875961304,-39.1295013428,145.142211914,6.29345417023,2.91442632675,-6.76543426514,0,0,0,0.467612728804,8.272603754,-0.617543875053,23.56,0.000624863821372,7.21840634494e-05,0.000899261097636,0.196618616581,0.0351645089686,-0.0566393211484,-0.149466753006,-0.079391002655,0.916321754456
1586441974.8,155.457275391,-38.968296051,147.619659424,6.20842552185,3.22883939743,-6.97089576721,0,0,0,0.461709781989,8.27105395272,-0.618061794878,23.53,0.000630087551463,8.08261590897e-05,0.000894767968376,-0.116561368108,0.0122718540952,-0.0109493741766,-0.157443284988,-0.076785326004,0.911478757858
1586441975.06,154.005371094,-39.4414367676,148.137802124,6.36118936539,3.40583777428,-6.87043380737,0,0,0,0.457199903204,8.27026110209,-0.617052177881,23.54,0.000648494037258,9.31043674446e-05,0.000886142324089,-0.0863030552864,0.0739045515656,-0.00450760126114,-0.168612957001,-0.0963525772095,0.907424926758
1586441975.32,153.085174561,-40.1968345642,148.699829102,6.61811971664,3.18033242226,-6.61892127991,0,0,0,0.451732158483,8.2651523229,-0.616056469465,23.53,0.000690123991311,6.18041108154e-05,0.000895610229051,-0.0250771641731,0.0590406358242,-0.0178724508733,-0.180701971054,-0.107780456543,0.901360988617
1586441975.57,151.774749756,-40.1981582642,149.838775635,6.64461088181,3.4733839035,-6.49350261688,0,0,0,0.44467738148,8.26121263899,-0.614893476167,23.52,0.000735812690038,5.11984480091e-05,0.000911896489453,-0.0974878668785,0.006095320452,-0.0960051864386,-0.184328794479,-0.121223688126,0.900142669678
1586441976.0,148.904769897,-41.9832687378,154.980422974,6.57828092575,3.64735770226,-5.8122677803,-2.2502,6.4824,0.527200218955,0.416930620501,8.24517339488,-0.619017238656,23.49,0.000871183532961,2.54064109739e-06,0.00109227161183,0.147677227855,0.112050034106,-0.133772194386,-0.23285484314,-0.13195514679,0.876998901367
1586441976.26,147.124954224,-41.7736244202,158.149887085,6.44637107849,4.18857574463,-5.93698549271,0,0,0,0.409493069367,8.2461726718,-0.622115140975,23.49,0.000857376310498,3.47382714713e-05,0.00112345589582,-0.100784003735,0.0969432368875,-0.198006629944,-0.246564149857,-0.136924982071,0.866295576096
1586441976.52,142.619659424,-41.5719223022,161.893341064,6.44751167297,4.70671129227,-5.83083724976,0,0,0,0.40350113727,8.24845872854,-0.623002426722,23.49,0.000847554931088,7.21074482285e-05,0.00112378936976,-0.228448227048,0.167562812567,-0.201249152422,-0.262867212296,-0.184227466583,0.853577852249
1586441976.77,135.491790771,-42.0915107727,166.996566772,6.67734956741,5.04988193512,-5.37555074692,0,0,0,0.399358739071,8.24688612494,-0.620484165339,23.49,0.000862310884063,6.37587475947e-05,0.00109624315516,-0.457257091999,0.325936883688,-0.261934161186,-0.297183990479,-0.259792566299,0.822411060333
1586441977.2,97.5170516968,-35.0088806152,-173.445632935,5.89049911499,7.61243629456,-0.948784291744,0,0,0,0.388754938014,8.2378884768,-0.620219423574,23.46,0.000901804053812,9.40369951221e-06,0.0011117301293,-0.428791433573,0.190905511379,-0.410670101643,-0.327845096588,-0.706005573273,0.555409669876
1586441977.46,92.5125656128,-31.1098690033,-170.321380615,4.98023414612,8.49573516846,-0.0698850005865,0,0,0,0.380532511108,8.23615167126,-0.625304520402,23.46,0.00088782360309,2.48938675296e-05,0.00115721245618,-0.253479212523,0.201036781073,-0.294631749392,-0.301050662994,-0.765506029129,0.504764080048
1586441977.72,88.3428497314,-28.2951602936,-167.991119385,4.41806697845,8.6080160141,0.956481218338,0,0,0,0.370154881329,8.23019399541,-0.636158872288,23.45,0.000851750277788,2.03139608737e-05,0.00126556495232,-0.271400809288,0.120344027877,-0.208109661937,-0.29935002327,-0.810996294022,0.470129489899
1586441977.97,85.9224319458,-25.9939861298,-167.161346436,4.1915268898,8.90240955353,1.00357031822,0,0,0,0.361291744039,8.2265105406,-0.6422442599,23.45,0.000834691447627,3.62763811669e-05,0.00132340797264,-0.0962957888842,0.0452868752182,-0.171253085136,-0.27841091156,-0.853576421738,0.425848245621
1586441978.4,82.0003814697,-16.4756355286,-165.411117554,2.64303398132,9.66653251648,1.45897638798,0,0,0,0.351574964463,8.22311748891,-0.647037618069,23.42,0.000812669697315,9.04280299206e-05,0.00134649231059,-0.245544359088,0.0505752973258,-0.386175572872,-0.167362451553,-0.926791906357,0.37170624733
1586441978.66,79.2666549683,-12.8345479965,-166.00894165,2.25752711296,9.54372310638,1.93696117401,-2.9066,8.2401,0.283419666581,0.306971727277,8.21281645888,-0.647388587378,23.43,0.00101474486851,0.000172579376783,0.00150688224012,-0.230920359492,-0.0128626842052,-0.259877830744,-0.112720012665,-0.953819274902,0.334577560425
1586441978.92,76.8893280029,-10.6919546127,-166.741973877,2.03354644775,9.31678009033,2.00679898262,0,0,0,0.301112745428,8.20673003649,-0.643673421862,23.43,0.00104787815174,0.000160745471249,0.00147836787281,-0.22347125411,-0.000309944181936,-0.126852110028,-0.0783081054688,-0.979969263077,0.301545619965
1586441979.18,75.5683822632,-10.2347917557,-166.008010864,1.84966301918,8.78421401978,2.18069314957,0,0,0,0.299382865842,8.19501137273,-0.63812120726,23.43,0.00106438994759,7.13310187095e-05,0.00144263085992,-0.0319942869246,0.13627037406,0.0571541599929,-0.0736820697784,-0.989223003387,0.281460285187
1586441979.6,83.7486419678,-13.1832017899,-162.105453491,1.84359622002,9.62149906158,1.50927782059,0,0,0,0.289683533952,8.18405139301,-0.649163885775,23.39,0.00100148291186,9.08511639736e-05,0.00151684245689,0.305754691362,-0.0716358423233,0.137456506491,-0.156378030777,-0.918889760971,0.394366025925
1586441979.86,86.9608612061,-14.2604560852,-163.064590454,2.36200451851,9.48286151886,0.764416456223,0,0,0,0.28139654097,8.17548361807,-0.653738159205,23.4,0.000992401171523,8.83866427994e-05,0.00155802456459,0.243235424161,-0.0694304704666,0.0342570282519,-0.170749664307,-0.889442920685,0.444403648376
1586441980.12,89.0207748413,-13.1006593704,-163.101730347,2.47169089317,9.6167640686,0.427633106709,0,0,0,0.267703690392,8.16670367489,-0.656486617742,23.4,0.00103168492187,9.7921389702e-05,0.00159993014982,0.0422351099551,0.0455506257713,-0.271467864513,-0.156005859375,-0.873594522476,0.472791433334
1586441980.38,85.1204376221,-8.15848255157,-162.136871338,1.81697273254,9.91857528687,0.943291306496,0,0,0,0.252345278717,8.16053811344,-0.657401954954,23.39,0.00109958960204,0.000136368861594,0.0016182957173,-0.507472515106,0.171271726489,-0.466170907021,-0.100817680359,-0.919060945511,0.423195838928
1586441980.8,77.3640365601,0.367870539427,-152.43196106,-0.0854784697294,9.45004844666,2.23465824127,0,0,0,0.244981093788,8.144484164,-0.659522879035,23.37,0.00109573490409,0.000115854062447,0.00163228658657,0.00377669977024,0.441088557243,-0.0129848746583,-0.0584173202515,-0.989497423172,0.282369375229
1586441981.06,77.8470306396,1.35381996632,-147.62588501,-0.259313672781,10.2179355621,2.05521059036,0,0,0,0.239801481168,8.14372203653,-0.666939553856,23.37,0.00109109777721,0.000218089417855,0.00163035684796,-0.0559195950627,0.411281734705,0.0132568180561,-0.0858504772186,-0.995144605637,0.270357131958
1586441981.32,66.4814987183,3.70215201378,-143.835983276,-1.54169094563,9.40596199036,4.49924707413,0,0,0,0.245884341802,8.13354155671,-0.683353989692,23.37,0.000942213093514,0.000287845330686,0.001727048484,-1.73157119751,0.269720941782,-0.099775262177,-0.069943189621,-1.04231905937,0.073704957962
1586441981.57,47.9860496521,5.2686548233,-142.697647095,-1.56367850304,6.4868183136,6.37072753906,0,0,0,0.260695606265,8.11955214785,-0.675680602683,23.37,0.000833329204712,0.000160468362085,0.00169906466794,-1.34010958672,0.0938065722585,-0.0820026099682,-0.0281667709351,-1.03951048851,-0.25620675087
1586441982.0,11.9897785187,14.7878875732,-151.273040771,-2.55154323578,2.28614997864,8.89013957977,0,0,0,0.263953178226,8.12086833988,-0.66233639558,23.35,0.000825593073048,0.000212804942067,0.00163380676155,-1.26655602455,0.293065041304,-0.593921840191,0.215751886368,-0.763697624207,-0.764632940292
1586441982.26,-4.90858268738,19.4256629944,-157.110412598,-3.10204720497,-1.34391903877,9.17350769043,0,0,0,0.260927245181,8.11347490465,-0.645447274748,23.35,0.000852445713965,0.000120632648033,0.0016255068947,-1.22099149227,0.409668207169,-0.394323736429,0.341059446335,-0.537324666977,-0.905143022537
1586441982.52,-15.7572975159,23.0565719604,-161.413452148,-3.53173398972,-3.08816409111,9.1007270813,0,0,0,0.249263577223,8.10112032909,-0.629372554968,23.35,0.000904312234986,1.40559038646e-05,0.00169368077351,-0.428907573223,0.314146995544,-0.19876511395,0.426668167114,-0.368953227997,-0.951189517975
1586441982.78,-18.8601722717,24.887556076,-164.329360962,-3.99419522285,-3.1447250843,8.89036083221,0,0,0,0.240579977637,8.09362041239,-0.618175455556,23.35,0.000926819842113,-3.08298146797e-05,0.00177150519696,-0.00122934579849,0.123857729137,-0.138890743256,0.475738525391,-0.324122667313,-0.943891048431
1586441983.2,-18.0683879852,22.7557277679,-165.679580688,-3.95379281044,-3.38554763794,8.06916713715,0,0,0,0.248840681932,8.1007606127,-0.593929069979,23.32,0.000900080644438,-0.000129170870818,0.00168059338915,-0.0368103384972,0.0181637704372,0.00485405372456,0.462754964828,-0.337309837341,-0.945670604706
1586441983.46,-19.8346309662,23.4818458557,-166.47869873,-4.06279850006,-3.38758563995,8.88908576965,0,0,0,0.247354973205,8.09646543018,-0.58342898613,23.33,0.000873840500379,-0.00018602983453,0.00175216240877,-0.266346365213,0.155416876078,-0.0641793087125,0.477181911469,-0.311946392059,-0.945407629013
1586441983.71,-24.3004188538,25.2991771698,-167.613616943,-4.23201227188,-4.15852737427,8.75230979919,0,0,0,0.241241080825,8.08913467853,-0.571104164874,23.33,0.000866957827126,-0.000272848596997,0.00186561302692,-0.312830507755,0.178619489074,0.0562004856765,0.509842395782,-0.245005846024,-0.94590473175
1586441983.97,-25.1539649963,27.7733802795,-166.177017212,-4.4429473877,-3.83029031754,8.23258495331,-2.5842,6.2933,0.256663264491,0.153652078191,8.055833302,-0.536533167321,23.32,0.00121794449098,-0.000342368214765,0.00212210326342,-0.0580355636775,0.14835819602,0.305213838816,0.527393817902,-0.233083963394,-0.94007396698
1586441984.4,-12.2265110016,32.034992218,-151.26222229,-4.95581531525,-1.89261436462,7.76156997681,0,0,0,0.150697371466,8.06024718765,-0.509243146236,23.29,0.00126074834588,-0.000364901093808,0.00205775906368,0.493943065405,-0.310449361801,0.554349422455,0.465236663818,-0.394726991653,-0.921698093414
1586441984.66,-0.830644071102,28.4585018158,-142.5625,-5.32505989075,-0.450624793768,8.51849269867,0,0,0,0.168446748503,8.0607482344,-0.498789877918,23.3,0.00114975155402,-0.000421732622669,0.00203949242855,0.710916101933,-0.483082413673,0.670434057713,0.356972932816,-0.535927534103,-0.901074886322
1586441984.91,11.5632171631,20.514831543,-134.823928833,-4.26359605789,1.54856848717,8.78524494171,0,0,0,0.190861402177,8.06120866376,-0.492225843838,23.29,0.0010083939086,-0.000473324370157,0.00200213851152,0.80402380228,-0.708379209042,0.685653328896,0.17964220047,-0.695686101913,-0.84535741806
1586441985.17,19.6270065308,11.9770154953,-130.73046875,-2.3664727211,3.08018708229,8.88727474213,0,0,0,0.19775962898,8.05743523277,-0.483349365891,23.29,0.000951604014683,-0.000498717710385,0.00197519893949,0.210149616003,-0.502750456333,0.323814213276,0.0183527469635,-0.785314321518,-0.763034582138
1586441985.6,3.59093403816,9.16855716705,-132.02532959,-1.40943348408,-0.273584514856,9.98592090607,0,0,0,0.181392277668,8.04502526663,-0.451406538277,23.26,0.000977449216909,-0.000654264374453,0.00203014653541,-0.592853188515,0.146218419075,-0.150138184428,-0.00158524513245,-0.582198143005,-0.928093671799
1586441985.86,-1.28615403175,10.5556249619,-134.185958862,-1.73783671856,-0.654252648354,9.56053066254,0,0,0,0.174040897553,8.04338912108,-0.432948069015,23.27,0.000987687503869,-0.00073185135509,0.00201463350251,-0.279517531395,0.0778682753444,-0.20379576087,0.0348072052002,-0.518428325653,-0.965502738953
1586441986.12,-4.13217163086,11.2618980408,-137.28755188,-2.46718549728,-0.741788029671,9.27098369598,0,0,0,0.188135746989,8.05153426161,-0.425785726072,23.27,0.000891501858101,-0.000740604228997,0.00195674784121,-0.254596799612,0.0775568187237,-0.298991799355,0.0731599330902,-0.486382246017,-0.982763290405
1586441986.38,-7.9592757225,11.8537015915,-141.377746582,-2.05882668495,-1.23335313797,9.05878067017,0,0,0,0.188572999774,8.05856111577,-0.415983047687,23.26,0.000884494715689,-0.000723284576908,0.00187583260272,-0.282463490963,0.100848846138,-0.3440335989,0.111735343933,-0.446080684662,-1.00356960297
1586441986.8,-12.6778020859,15.4299249649,-149.573364258,-2.53144717216,-2.16934514046,9.36059474945,0,0,0,0.178399208624,8.06139180408,-0.392038856339,23.24,0.00089825874361,-0.000739912765845,0.00189888812556,0.110099479556,0.215890303254,-0.150798276067,0.229015111923,-0.395572185516,-1.00582432747
1586441987.06,-12.2817935944,16.6972026825,-152.182434082,-2.78420233727,-1.9743822813,9.44328975677,0,0,0,0.172090641721,8.06136848254,-0.376380302359,23.25,0.000904069296898,-0.000735152388972,0.00194504112782,0.0885538831353,0.0754050910473,-0.206531599164,0.267047643661,-0.408122301102,-0.992919921875
1586441987.32,-11.4480381012,16.3792037964,-154.733047485,-2.70835995674,-2.27730822563,9.56982898712,0,0,0,0.161742201937,8.06199749118,-0.355020174203,23.25,0.000913821568384,-0.000809219889784,0.00200629746812,0.152275726199,-0.0329941548407,-0.242944091558,0.284161567688,-0.42416882515,-0.983220815659
1586441987.58,-10.9571762085,15.2545309067,-157.984375,-2.80668449402,-1.7692592144,9.41579914093,0,0,0,0.165094288001,8.0672600871,-0.342940919123,23.24,0.000873198558524,-0.00080360079326,0.00202807450445,0.0348515808582,-0.05367994681,-0.297228991985,0.294697761536,-0.444611787796,-0.976377010345
1586441988.0,-11.7501878738,16.7868061066,-161.746170044,-2.7949616909,-2.14281892776,9.21972179413,0,0,0,0.156432057827,8.07665765322,-0.316624470618,23.22,0.000880062561593,-0.000845698340064,0.00203142885499,-0.12782664597,0.0551469661295,0.0929675996304,0.347144365311,-0.438416957855,-0.957062005997
1586441988.26,-12.0753679276,16.8952827454,-160.877105713,-2.77194070816,-1.99778902531,8.69565868378,-2.4947,6.4308,0.211078283153,0.020898927859,8.03897795453,-0.250015172783,23.22,0.00134526833512,-0.000882485882024,0.00206457364205,-0.0260561741889,-0.00272542308085,0.0530444160104,0.341530323029,-0.431773900986,-0.961411714554
1586441988.52,-13.7808990479,18.369972229,-160.715881348,-2.66414093971,-2.07487678528,8.80168914795,0,0,0,0.00171397687001,8.04112054648,-0.233225901702,23.23,0.00142157558684,-0.000855153412426,0.00201812270951,-0.295126408339,0.288001418114,0.0566564500332,0.356230974197,-0.404127597809,-0.969219684601
1586441988.78,-18.0122108459,23.3181838989,-161.563537598,-4.34998750687,-2.98482561111,8.79258346558,0,0,0,0.0116720801242,8.05284557976,-0.218202173683,23.21,0.00133804034975,-0.000892386468691,0.00205999687174,-0.218577697873,0.430062353611,0.0481396950781,0.427633285522,-0.342490911484,-0.96507692337
1586441989.2,-17.6428604126,32.0845031738,-163.807891846,-5.21553850174,-2.6930243969,7.70386886597,0,0,0,0.00828489857509,8.06938775736,-0.193138323954,23.2,0.00133774399217,-0.000924649831481,0.00201866000253,0.319070339203,0.178358718753,0.0687994137406,0.548450946808,-0.353061676025,-0.888826608658
1586441989.46,-14.1891431808,34.0220718384,-163.392227173,-5.44466209412,-2.09110331535,7.40720129013,0,0,0,0.00541095328626,8.08166733525,-0.18151581918,23.21,0.00134717287851,-0.000942847792823,0.00192883433207,0.217295482755,0.133389979601,0.105080761015,0.566600322723,-0.409168720245,-0.853341817856
1586441989.72,-10.0371398926,35.8057632446,-161.334732056,-5.65150690079,-1.58737921715,7.3985619545,0,0,0,-0.000382063381975,8.09272131209,-0.168008309613,23.21,0.00136418390942,-0.000980401776081,0.00184600560204,0.296869158745,0.132309675217,0.261933416128,0.566761016846,-0.463538646698,-0.82644534111
1586441989.98,-3.69236660004,38.7466430664,-157.447006226,-6.03680038452,-0.542650163174,7.65122556686,0,0,0,-0.00579965655904,8.09469699202,-0.147963259288,23.2,0.00138286874839,-0.000989434375572,0.00184774540305,0.368946105242,0.334406673908,0.320100098848,0.570286512375,-0.540287733078,-0.770145654678
1586441990.4,28.7134017944,50.8063545227,-141.313064575,-7.57077169418,2.89018034935,5.52145051956,0,0,0,-0.00300214227762,8.07774629666,-0.120430354949,23.18,0.00138863351464,-0.00100620440543,0.00186282613982,0.823717594147,0.314497232437,0.245074227452,0.576184988022,-0.813659191132,-0.408476114273
1586441990.66,44.8807792664,51.7681655884,-133.980316162,-7.88842344284,3.95976758003,4.28156614304,0,0,0,0.00481379749049,8.07035277405,-0.109483535489,23.2,0.00135511310807,-0.00106866048701,0.00185875525232,0.979314208031,0.306280821562,0.312156319618,0.536478281021,-0.894768714905,-0.235790967941
1586441990.91,63.2961769104,50.576789856,-126.023040771,-7.76323080063,5.11822509766,2.71013045311,0,0,0,0.010947779217,8.06285881377,-0.104493666158,23.19,0.00132099375284,-0.00115505536002,0.00184153076702,1.11689841747,0.289062559605,0.382433235645,0.468424081802,-0.955830097198,-0.0203967094421
1586441991.17,82.6085586548,46.8999938965,-118.88130188,-7.3715338707,6.40991401672,0.907077729702,0,0,0,0.0196671580771,8.05034019753,-0.106860559288,23.19,0.00128234917326,-0.00120138374379,0.00185023406255,1.29732954502,0.333929955959,0.485021919012,0.368093729019,-0.963696718216,0.222170591354
1586441991.6,142.707809448,26.4262180328,-110.249557495,-4.44957494736,5.91502285004,-7.3796877861,-3.9096,7.9936,0.653054406562,-0.191332160427,7.99341290767,-0.0845666671146,23.17,0.00188279237926,-0.00125278088963,0.00167518290203,1.73036849499,0.352604269981,0.392458975315,-0.031641960144,-0.422918558121,0.881939888
1586441991.86,160.715591431,21.9206085205,-112.401107788,-3.39771556854,3.65579581261,-8.87827682495,0,0,0,-0.202336719162,7.99005200373,-0.114465776951,23.18,0.001933392691,-0.00112640033624,0.00161942079874,1.52270245552,0.201129332185,0.315410912037,-0.0937440395355,-0.102955818176,0.932348012924
1586441992.12,175.378982544,19.0027084351,-115.457122803,-2.79574227333,1.27981603146,-9.31385707855,0,0,0,-0.21995669914,7.9891862643,-0.135188339896,23.17,0.00200674918073,-0.00102166557409,0.00160522707207,1.19986379147,0.22109682858,0.289168298244,-0.11485004425,0.170621871948,0.891902208328
1586441992.38,-174.015975952,15.9191627502,-118.695449829,-2.44761896133,-0.528591454029,-9.1452999115,0,0,0,-0.231546296223,7.99069710388,-0.149964543111,23.17,0.0020509117177,-0.000932020569451,0.00165065452898,0.80756342411,0.337354212999,0.23980820179,-0.138059854507,0.364002943039,0.80588054657
1586441992.8,-166.180969238,6.50550317764,-121.82598877,-1.62469446659,-1.98154020309,-9.36587715149,0,0,0,-0.22381561075,8.01327114299,-0.178532632561,23.15,0.0019585370708,-0.000865574950121,0.00167254622542,-0.175414979458,-0.0119358282536,-0.106173761189,-0.246458768845,0.484033107758,0.662178039551
1586441993.06,-169.493972778,6.77881145477,-120.725456238,-1.23372721672,-1.65916872025,-9.80446147919,0,0,0,-0.231806523267,8.02915510445,-0.196619003897,23.16,0.0019458256582,-0.00084260693745,0.00162907749238,-0.436924487352,-0.0487029626966,-0.067578278482,-0.250788927078,0.437932252884,0.698030471802
1586441993.32,-175.937698364,6.76499891281,-119.817420959,-0.929659903049,-0.721529364586,-10.1329193115,0,0,0,-0.256498965174,8.04508911652,-0.212140187258,23.16,0.00198831920865,-0.000847916500655,0.00154707237883,-0.693772792816,0.0338696055114,-0.09463878721,-0.261072635651,0.34793639183,0.750907659531
1586441993.58,175.787124634,5.80245637894,-118.404701233,-0.778296470642,0.837306976318,-10.0030593872,0,0,0,-0.276985638142,8.05650652774,-0.228546965675,23.16,0.00202862236407,-0.0008233131374,0.00149367067827,-0.749011456966,0.131573557854,-0.128263279796,-0.289907455444,0.202743768692,0.795009613037
1586441993.99,156.790512085,1.33533072472,-115.921821594,-0.603642702103,3.84790897369,-8.89961910248,-3.5771,7.5713,0.569812266727,-0.509227326045,8.05652813409,-0.192659529717,23.14,0.00250094811348,-0.00106481146208,0.00145668417251,-0.382652908564,0.0518016442657,-0.00238418532535,-0.37037062645,-0.11415719986,0.803175926208
1586441994.25,153.358917236,1.46512007713,-115.522613525,-0.44250869751,4.32594156265,-8.57474136353,0,0,0,-0.517802662456,8.06317670268,-0.212034716283,23.14,0.00246529044758,-0.00108060832314,0.00149561551566,-0.248260825872,-0.0365600027144,-0.0668033957481,-0.370540142059,-0.173211812973,0.799378156662
1586441994.51,151.114273071,2.81920671463,-114.940567017,-0.450789600611,4.62539768219,-8.49102020264,0,0,0,-0.536736883735,8.06942397099,-0.230299130973,23.15,0.00246939885026,-0.00110195481982,0.00151344529328,-0.168842062354,-0.103603310883,-0.107736885548,-0.357483625412,-0.214194059372,0.804080247879
1586441994.77,150.046859741,3.81899309158,-114.587142944,-0.368029236794,4.82271814346,-8.49516582489,0,0,0,-0.566050919846,8.07585270757,-0.247824934855,23.15,0.00251955469865,-0.00111281305308,0.0015100147427,-0.0143513083458,0.00777319120243,-0.0082865357399,-0.345925331116,-0.239428043365,0.806403636932
1586441995.2,151.858688354,-0.166426345706,-112.348457336,-0.335920572281,5.30684614182,-8.62819004059,0,0,0,-0.559950432948,8.08614200515,-0.291919696839,23.12,0.00245837391371,-0.000979181263532,0.00151595154012,-0.567995071411,0.0338293686509,-0.30971172452,-0.406732082367,-0.213925600052,0.766565799713
1586441995.46,140.042449951,0.665012359619,-109.398521423,-0.053416159004,7.40486764908,-7.38983678818,0,0,0,-0.546829805423,8.08325515301,-0.327188198175,23.14,0.00247679066391,-0.000756443751602,0.00154183763915,-1.50249540806,0.119220525026,-0.134182050824,-0.405544996262,-0.403717756271,0.715362787247
1586441995.72,117.693817139,0.904342651367,-108.495101929,-0.0686230137944,8.79693222046,-4.7524523735,0,0,0,-0.561637340604,8.08236819084,-0.35141965976,23.13,0.00249351956109,-0.000733721984575,0.00150234147278,-2.28484296799,-0.0510529391468,-0.0832603648305,-0.392625331879,-0.691399335861,0.532324075699
1586441995.97,89.5383682251,3.07523393631,-109.034690857,-0.497404068708,9.39172840118,-0.6996768713,0,0,0,-0.592227702338,8.08464775659,-0.364673943369,23.14,0.00249798928066,-0.00081583602769,0.00134395779787,-2.58312869072,-0.0803933888674,-0.234097674489,-0.331542491913,-0.925644397736,0.175653934479
1586441996.4,29.6647758484,6.47854471207,-111.194610596,-1.21084165573,4.79052019119,8.33783817291,0,0,0,-0.611086776318,8.04924349382,-0.358948590181,23.11,0.00247867031235,-0.000823724296157,0.00131631879668,-1.02890872955,-0.0489935390651,-0.0639364346862,-0.192257404327,-0.771295785904,-0.719057321548
1586441996.66,18.3667469025,7.36210298538,-111.932510376,-1.60604858398,2.99989175797,9.17516231537,0,0,0,-0.611207009712,8.02929793399,-0.35115273257,23.12,0.00241351560451,-0.000839932714797,0.00130451746119,-0.94495755434,0.149240404367,-0.0571072287858,-0.169221401215,-0.647238016129,-0.845629692078
1586441996.91,9.26823616028,9.21646785736,-111.971763611,-1.86254584789,1.20401239395,10.0820407867,0,0,0,-0.61886483136,8.00125474365,-0.332861662255,23.13,0.00235467561121,-0.000915397308131,0.00141275098342,-0.656439483166,0.123006872833,-0.0929534584284,-0.135793447495,-0.521999597549,-0.937567234039
1586441997.17,2.45794773102,10.2192564011,-114.166404724,-2.37958979607,-0.270568311214,10.1024398804,0,0,0,-0.623455980683,7.98129216413,-0.306965873944,23.12,0.00222870870725,-0.00106147571238,0.00150848052979,-0.401760697365,0.0312738232315,-0.139707356691,-0.105937480927,-0.438518762589,-0.982085227966
1586441997.6,7.34599494934,8.09353065491,-112.287475586,-1.3656001091,1.07765138149,9.17409133911,0,0,0,-0.657394371596,7.96166361881,-0.283927045745,23.1,0.0022316820315,-0.00109529997713,0.00141176917053,0.0489346757531,-0.152263075113,0.124903790653,-0.150278568268,-0.497486591339,-0.950146913528
1586441997.86,7.27612447739,6.55814504623,-111.665283203,-0.743628382683,1.37394559383,9.14692687988,0,0,0,-0.689190812814,7.94995949095,-0.275705430723,23.11,0.00230526627411,-0.00106304713539,0.0013004896289,-0.077904753387,-0.0981122255325,0.0406898520887,-0.170893907547,-0.490652322769,-0.943140506744
1586441998.12,6.40229082108,6.06866264343,-110.938446045,-0.626724898815,1.06377601624,9.26685619354,0,0,0,-0.727984781393,7.93695494313,-0.265741641468,23.11,0.00238386691502,-0.00106474207703,0.00120835512005,-0.0821277573705,0.0164709985256,0.118751093745,-0.186435937881,-0.470709085464,-0.944400072098
1586441998.38,6.08471870422,6.6326880455,-109.41053772,-1.22350800037,0.731476426125,9.58093452454,0,0,0,-0.751726431673,7.92289381859,-0.250031474672,23.11,0.0023644620983,-0.00112858706584,0.00118484210532,-0.0293165482581,0.0683762207627,0.131011754274,-0.180295705795,-0.450924396515,-0.954494476318
1586441998.8,3.07440400124,8.6456155777,-104.939506531,-1.86778342724,0.419530749321,9.84837532043,0,0,0,-0.756978013036,7.89194301041,-0.224947244788,23.09,0.002287543735,-0.00115271872418,0.00121987444947,-0.290708243847,0.148639842868,0.0899963155389,-0.169239044189,-0.370318889618,-0.988809347153
1586441999.06,0.865046679974,10.9942598343,-103.591255188,-1.89428305626,-7.27270162315e-05,9.74397659302,0,0,0,-0.773826421715,7.87091888193,-0.205060367579,23.1,0.00228128526575,-0.00118359556701,0.0012433902959,-0.146926939487,0.267193466425,0.151693075895,-0.138275623322,-0.320817232132,-1.01419496536
1586441999.32,1.20438015461,14.341053009,-101.06552124,-2.48803758621,-0.0950810238719,10.0867118835,0,0,0,-0.789874043571,7.84142012483,-0.173927464471,23.1,0.00226561511086,-0.00124676609496,0.00136726057065,0.079221278429,0.281883001328,0.265688449144,-0.0966830253601,-0.299957990646,-1.0323703289
1586441999.58,4.08007478714,16.49036026,-98.1734466553,-2.8430325985,0.230706945062,9.74906349182,0,0,0,-0.813759975675,7.81665775091,-0.143260549243,23.09,0.00224955718104,-0.00134079384987,0.0014448635673,0.26540389657,0.0916741937399,0.222236707807,-0.0707731246948,-0.317873954773,-1.03112316132
1586442000.0,15.1599550247,12.9970855713,-94.9250717163,-2.47535252571,2.54304003716,9.13641834259,0,0,0,-0.815458278799,7.78092235615,-0.128037875567,23.07,0.00219743741267,-0.00133340881206,0.00142533191192,0.100716196001,-0.192567691207,0.0514008030295,-0.137785434723,-0.461209058762,-0.966984272003
1586442000.26,16.1121959686,9.82754135132,-94.9069747925,-1.4432425499,2.46930551529,8.85695266724,0,0,0,-0.853403182638,7.76266678497,-0.123131398602,23.08,0.00224229831774,-0.00137756446023,0.00133058332294,0.0558651983738,-0.289885729551,0.107439622283,-0.182810306549,-0.472559213638,-0.945702552795
1586442000.52,17.2977237701,6.98411417007,-94.5863265991,-1.01680612564,2.62844133377,8.81772518158,0,0,0,-0.893274639725,7.74780922697,-0.121347675279,23.09,0.00227619105521,-0.00143386803449,0.00122502013286,0.112304858863,-0.132314860821,0.0933535397053,-0.232858181,-0.484368562698,-0.923631191254
1586442000.78,19.4545059204,6.40155744553,-93.3961410522,-1.03973603249,2.96855783463,8.61951828003,0,0,0,-0.929722709343,7.73719735784,-0.124536580834,23.09,0.00228637194915,-0.00149376236829,0.00109924968235,0.237990185618,0.0938020646572,0.157872602344,-0.245904445648,-0.499930858612,-0.904544591904
1586442001.2,23.1520195007,5.35832071304,-87.2173919678,-1.16746461391,3.6953318119,9.12131214142,0,0,0,-0.941836431684,7.6954566973,-0.112630985019,23.07,0.00223446569373,-0.00152742933842,0.001129982456,-0.332471758127,-0.0213518738747,0.117483749986,-0.268514633179,-0.495468616486,-0.897018194199
1586442001.46,19.6380348206,4.98821783066,-86.4943695068,-0.972649097443,3.0811817646,9.35088539124,0,0,0,-0.957391260877,7.66891331622,-0.0992010201715,23.07,0.00220821333916,-0.00157296903541,0.00116159217637,-0.310364365578,0.0374130941927,0.0334419310093,-0.271338939667,-0.4419028759,-0.921906232834
1586442001.72,16.7195320129,6.44001865387,-86.0749435425,-0.902278602123,2.65997719765,9.43415927887,0,0,0,-0.985241259218,7.63523876202,-0.0866319856315,23.08,0.00224607856827,-0.00160322691691,0.00118150870568,-0.210167512298,0.215949907899,-0.0060707340017,-0.249735593796,-0.396527528763,-0.947127819061
1586442001.97,15.4163551331,8.9831495285,-85.1437149048,-1.52167308331,2.32862877846,9.71923160553,0,0,0,-1.00648081621,7.59976106604,-0.0613002288029,23.08,0.00224464840896,-0.00165772030559,0.00126406557029,-0.0383988022804,0.189637437463,0.0559948459268,-0.21231842041,-0.374924182892,-0.968243122101
1586442002.4,16.5714607239,5.12573432922,-82.7659759521,-1.15632605553,2.58615231514,9.37568283081,0,0,0,-1.02328441492,7.56142467802,-0.0441151545057,23.06,0.00218608139348,-0.00170436474989,0.00126634770898,0.0623934008181,-0.160756722093,0.0226132571697,-0.27109670639,-0.361213922501,-0.952068567276
1586442002.66,16.8519821167,3.71399855614,-83.8737182617,-0.830869734287,2.84519171715,9.06918811798,0,0,0,-1.02907726135,7.54647267541,-0.0476647990811,23.07,0.00214710450196,-0.00170402328023,0.00119886596995,0.0256188251078,-0.0908941105008,-0.0960022211075,-0.292302846909,-0.372011899948,-0.936333417892
1586442002.92,18.4633293152,4.03196716309,-84.8962783813,-0.904544711113,3.05657172203,9.22910404205,0,0,0,-1.03484413173,7.52673453527,-0.0419580306626,23.07,0.00210285118416,-0.00171505561298,0.00118664237443,0.275745302439,0.0212498046458,-0.0524416640401,-0.287695407867,-0.404490232468,-0.927710294724
1586442003.17,22.8372020721,3.29951477051,-84.8556900024,-0.683711469173,3.93984770775,9.06002998352,0,0,0,-1.03160849623,7.50000205744,-0.0389853310931,23.08,0.00207907530388,-0.00168479054426,0.00119356887443,0.43164268136,-0.1570135355,0.125695034862,-0.29998755455,-0.459989547729,-0.899898290634
1586442003.6,38.5058898926,1.68103468418,-84.1795272827,-0.705182671547,6.48916196823,7.82146453857,0,0,0,-1.00336694424,7.45896683791,-0.0447749498981,23.05,0.00199502474289,-0.00160126650386,0.00122744625538,0.155187442899,-0.0209346450865,-0.109769418836,-0.337598562241,-0.641248464584,-0.762078762054
1586442003.86,37.1236000061,1.96211791039,-85.3897247314,-0.348748415709,6.18376588821,8.16608905792,0,0,0,-0.991447998797,7.4168421713,-0.0372186197778,23.07,0.0019927915987,-0.00154119714341,0.00130564832424,-0.311596691608,-0.040079664439,-0.0645488500595,-0.330116033554,-0.640568971634,-0.76273393631
1586442004.12,34.8306274414,2.64846110344,-85.892074585,-0.268940508366,5.24959802628,8.67997455597,0,0,0,-1.03115686495,7.36331444446,-0.00349428996192,23.06,0.00202588280573,-0.0016191895338,0.00144895012977,-0.0327154994011,0.0525288209319,-0.0751584842801,-0.323530435562,-0.621166229248,-0.78716135025
1586442004.38,36.0444984436,3.42595863342,-86.2502288818,0.164578512311,5.65691232681,8.48724555969,0,0,0,-1.07970242695,7.28529859038,0.0185485272657,23.07,0.00217895480858,-0.0016378764566,0.00157539592689,0.134257242084,0.0276587940753,-0.0345006622374,-0.310349702835,-0.639164924622,-0.782399177551
1586442004.8,46.3817100525,2.99063634872,-91.8550643921,-1.00153124332,7.03158140182,6.32079172134,0,0,0,-1.09319249542,7.27254632973,-0.0050496987414,23.05,0.0020768946519,-0.00165567055709,0.00147545872906,0.444617211819,-0.313825964928,-0.323446184397,-0.327008247375,-0.781492233276,-0.627492904663
1586442005.06,49.3392944336,4.3736243248,-97.8836135864,-1.24797773361,7.45320081711,6.22079610825,0,0,0,-1.08764291672,7.27047814642,-0.0125126456245,23.07,0.00197215517462,-0.00165204688899,0.00144102582567,0.110099464655,-0.284341007471,-0.497068464756,-0.3034324646,-0.852838277817,-0.544696092606
1586442005.32,49.9144477844,6.5791516304,-103.147880554,-1.33269798756,7.46663951874,6.05568408966,0,0,0,-1.09921441213,7.26065262085,-0.0241950606426,23.06,0.00192863922716,-0.00165143044256,0.00139000319521,0.0790320336819,-0.155358031392,-0.36281350255,-0.257666349411,-0.897744894028,-0.504887104034
1586442005.57,50.7730712891,8.65684509277,-106.23550415,-1.53308129311,6.99078512192,6.62577390671,0,0,0,-1.15463634186,7.22279757057,0.0123112295776,23.06,0.00191082599609,-0.001773197279,0.00150369325181,0.173708051443,-0.0462234057486,-0.29226988554,-0.220485925674,-0.931303262711,-0.475134372711
1586442006.0,49.8025894165,9.45048332214,-115.342414856,-1.50354027748,7.40325069427,6.15048503876,0,0,0,-1.19764918863,7.17950222718,0.0104288213516,23.05,0.00193384915798,-0.00176991029983,0.00148014080627,-0.809000730515,-0.490607529879,-0.127448186278,-0.168991804123,-0.969947099686,-0.404383659363
1586442006.26,37.6950912476,7.11231851578,-120.747512817,-1.52921617031,5.75211334229,6.92979717255,0,0,0,-1.23704548271,7.20800585636,-0.0140520670633,23.05,0.00186737658046,-0.00181904582528,0.00129909616155,-1.10295164585,-0.419694304466,-0.239263579249,-0.159956693649,-0.911492347717,-0.553913593292
1586442006.52,24.3545246124,6.04090833664,-124.949867249,-1.41964626312,3.9042494297,7.95652866364,0,0,0,-1.2689570426,7.25334633254,-0.0453323478789,23.06,0.00178626226567,-0.00184951087799,0.00108061435072,-1.1378068924,-0.126157730818,-0.264127641916,-0.134410381317,-0.809949874878,-0.707033634186
1586442006.78,10.2089643478,6.99836397171,-128.108169556,-1.29823768139,1.18481755257,8.80072689056,0,0,0,-1.35260237011,7.29118093745,-0.0613209892691,23.06,0.00176247757593,-0.00197704377646,0.000895751471483,-1.17829465866,0.0723012164235,-0.257305860519,-0.0852794647217,-0.658096790314,-0.866307973862
1586442007.2,-9.82087898254,16.9630584717,-134.781906128,-3.15267896652,-1.57291388512,9.68984222412,0,0,0,-1.36893788261,7.28862956833,0.00603334168945,23.05,0.00169803484231,-0.00197217602866,0.00100100727494,-0.19343945384,0.34733492136,-0.127835586667,0.112242937088,-0.359362602234,-1.0323843956
1586442007.46,-11.9714384079,20.6101112366,-136.968704224,-3.34872460365,-2.29046154022,9.65043449402,0,0,0,-1.42435206304,7.26544034709,0.0809462047824,23.05,0.00171559204533,-0.00206259509141,0.0011585516482,-0.0360176004469,0.358577847481,-0.146727278829,0.187167882919,-0.353732585907,-1.0298268795
1586442007.71,-17.5081214905,25.9067783356,-141.101211548,-4.26538228989,-2.70813083649,8.59618473053,0,0,0,-1.44822089286,7.26758354013,0.119058179957,23.06,0.00171913898029,-0.00207447205327,0.00120052004942,-0.59595566988,0.678760647774,-0.254628121853,0.290646791458,-0.286431074142,-1.03043746948
1586442007.97,-31.4091339111,31.8723239899,-149.350906372,-4.93566989899,-4.8549413681,6.71632385254,-2.1859,6.5151,0.311167046526,-1.71113845715,7.2160679636,0.107012217648,23.06,0.00205362475209,-0.00227984665739,0.00107226150812,-0.97902739048,0.767045676708,-0.366278111935,0.432894706726,-0.0960156917572,-1.01236343384
1586442008.4,-29.3277702332,42.9991912842,-162.255630493,-6.16676521301,-3.42385649681,6.52870321274,0,0,0,-1.74446277636,7.22584835514,0.151250218282,23.04,0.00215902527087,-0.00225184659494,0.00112839940459,0.760350525379,0.00151321315207,0.244077324867,0.646500110626,-0.207722187042,-0.862312555313
1586442008.66,-18.2433719635,43.1623840332,-157.952224731,-6.61487674713,-2.28820085526,6.66651439667,0,0,0,-1.76927333982,7.24837067613,0.172745797858,23.05,0.00217814815904,-0.0022590137985,0.00109904966213,0.639575064182,-0.149785012007,0.248003795743,0.616710186005,-0.352277040482,-0.838527441025
1586442008.93,-7.65079021454,41.3840637207,-153.894363403,-6.39466810226,-1.07650566101,7.44649934769,0,0,0,-1.79449794645,7.25496993236,0.217538336261,23.05,0.00219419338514,-0.00227747282468,0.00113126223246,0.645958662033,-0.25405138731,0.177266463637,0.567254304886,-0.482247114182,-0.808554410934
1586442009.18,-0.822151303291,38.5843963623,-152.82711792,-6.30312108994,-0.0736154019833,7.89019393921,0,0,0,-1.79697148397,7.2643569248,0.267345611939,23.05,0.00215664301111,-0.00227341673326,0.00117984583522,0.398459285498,-0.259412825108,-0.0411838330328,0.523974180222,-0.577219963074,-0.776564836502
1586442009.6,6.98704862595,27.4960155487,-152.400054932,-4.60291814804,1.20156645775,8.58353424072,0,0,0,-1.82330502641,7.27217872508,0.31196213125,23.03,0.00214440454996,-0.00224398831028,0.00116675529257,-0.110466785729,-0.305613905191,-0.0108614563942,0.377416610718,-0.692223548889,-0.768397331238
1586442009.86,4.39543485641,24.1173305511,-153.353027344,-4.00982284546,0.757496535778,8.86554908752,0,0,0,-1.84546728172,7.27824026813,0.335722524239,23.05,0.00214561696673,-0.00222829925562,0.00115174467591,-0.314211934805,-0.304278790951,-0.0623867027462,0.34689283371,-0.665627241135,-0.809166193008
1586442010.12,-1.1090285778,19.8844604492,-153.923797607,-3.73595547676,0.0965028181672,9.2025642395,0,0,0,-1.83311896115,7.30023821095,0.358366023824,23.05,0.00206869792746,-0.00217652713024,0.00114681263113,-0.554615437984,-0.475397765636,0.00680461619049,0.303621053696,-0.595586299896,-0.88294672966
1586442010.38,-7.37136459351,13.5327444077,-154.191543579,-2.34679365158,-1.2021920681,9.76106739044,0,0,0,-1.85299728219,7.30460897537,0.403336947224,23.04,0.00205707662889,-0.00217332589678,0.00121324861808,-0.414164453745,-0.598621487617,-0.17307703197,0.224926948547,-0.503019094467,-0.957671403885
1586442010.8,-11.099360466,-2.06478023529,-159.304412842,0.890229940414,-2.4194483757,9.3096780777,0,0,0,-1.98796006048,7.32988120596,0.407246803051,23.03,0.00215977887526,-0.00227622211423,0.00114178588468,0.411164045334,0.0174932200462,-0.114157818258,0.0639636516571,-0.472404003143,-0.987114191055
1586442011.06,-3.85616254807,-0.398688912392,-161.021377563,-0.127462059259,-0.61597853899,9.233543396,0,0,0,-2.0230595563,7.37233147929,0.37929468407,23.04,0.00212187214144,-0.00226791564129,0.00101649305341,0.724480450153,0.271927595139,-0.108782969415,0.0934386253357,-0.581259727478,-0.93266749382
1586442011.31,-0.45165809989,1.30210518837,-162.746810913,-0.597766876221,0.0537817589939,9.78652667999,0,0,0,-2.02579793231,7.40402293241,0.393080188387,23.04,0.00204577823671,-0.00224578628905,0.00101187578125,-0.0652626231313,0.0274099428207,-0.179706513882,0.129109859467,-0.633622407913,-0.89472079277
1586442011.57,-3.37592458725,1.13836836815,-165.251174927,-0.0141013879329,-0.788023889065,9.7764749527,0,0,0,-2.08664957897,7.42106035019,0.409393855639,23.04,0.00207954557345,-0.0022875261962,0.0010073709134,-0.277765184641,0.0010393562261,-0.238356038928,0.151180505753,-0.595327854156,-0.918538093567
1586442012.0,-3.11138653755,9.27119827271,-173.610153198,-1.11991477013,-0.655728161335,8.90940475464,0,0,0,-2.1918745046,7.46259641512,0.37508815928,23.03,0.00217740108817,-0.00230461737051,0.000831584868903,0.258994877338,0.53354883194,-0.0702455863357,0.333827257156,-0.58633351326,-0.879449367523
1586442012.26,0.724455177784,14.4732322693,-174.105194092,-3.14724326134,0.636919617653,9.67503738403,0,0,0,-2.13085302539,7.4950182764,0.406313619662,23.03,0.00203852901513,-0.00220405438166,0.000872318930479,0.174363702536,0.296940714121,0.0346802175045,0.398988485336,-0.63467335701,-0.810130357742
1586442012.52,4.23582410812,16.7520370483,-172.980300903,-3.39326310158,0.386499285698,9.47896671295,0,0,0,-2.14161018106,7.56070166669,0.450639291182,23.04,0.00191238032417,-0.00228154628632,0.000900184033803,0.437417000532,0.137325406075,0.0679128021002,0.413540363312,-0.679152965546,-0.765253305435
1586442012.77,7.61660766602,19.0083885193,-172.011047363,-3.14453125,0.763924956322,9.58626651764,0,0,0,-2.19579767886,7.58823994371,0.522295524571,23.04,0.00191308221081,-0.0023839793291,0.000990921522777,0.305787533522,0.399429380894,0.0422142483294,0.427496433258,-0.717713117599,-0.715347528458
1586442013.2,9.75885772705,28.6751194,-171.302383423,-4.87923526764,1.73334252834,8.50158119202,0,0,0,-2.19549290003,7.61071845631,0.571526561429,23.02,0.00188104564087,-0.00232582513594,0.000994171570876,0.0305481310934,0.264584302902,0.0106148440391,0.530103683472,-0.72735118866,-0.620507717133
1586442013.46,11.6019630432,31.202709198,-170.193237305,-5.28847694397,2.81386637688,8.69765281677,0,0,0,-2.09730888821,7.5567368932,0.625720911158,23.03,0.00185477579241,-0.00208019926332,0.00110146226156,0.136365711689,0.163715317845,0.0662557631731,0.548457622528,-0.741376399994,-0.578878641129
1586442013.71,12.944275856,31.5059700012,-169.702865601,-4.47753047943,2.35119771957,8.74624443054,0,0,0,-2.1067556649,7.47920140274,0.703453663824,23.03,0.0020008883182,-0.00196378965568,0.00123472629188,0.112267583609,-0.0718519091606,0.0115551045164,0.543123483658,-0.757861614227,-0.562492609024
1586442013.98,15.8020267487,29.8609256744,-168.493240356,-4.53259658813,2.73292970657,7.79152154922,0,0,0,-2.13300401063,7.45217794499,0.688999871563,23.04,0.00208617228859,-0.00186287137006,0.00113850788136,0.225979849696,-0.176084041595,0.266558676958,0.516927719116,-0.792074680328,-0.5476167202
1586442014.4,24.0172290802,19.7451305389,-160.468154907,-3.31935143471,3.30209064484,8.38864517212,0,0,0,-2.21722278078,7.48219737464,0.745901813133,23.02,0.00207698506662,-0.00196549912967,0.00112834204032,0.00213757180609,-0.178040578961,0.0598482787609,0.320033550262,-0.899594545364,-0.537412643433
1586442014.67,23.3123836517,18.3687973022,-161.762588501,-2.99430584908,3.92305922508,8.78864383698,0,0,0,-2.22806036911,7.45271438745,0.795448390415,23.03,0.00210131542881,-0.0019105230653,0.00118237517663,-0.162100791931,-0.129772737622,-0.12604445219,0.312630176544,-0.896339416504,-0.548107385635
1586442014.92,18.098405838,17.6453971863,-163.918319702,-3.24948763847,3.3032476902,9.37934494019,0,0,0,-2.18570843529,7.43073576004,0.867361515617,23.03,0.00204560403056,-0.0018264491967,0.00129790573363,-0.609178900719,-0.15475307405,-0.116793833673,0.33051776886,-0.845453262329,-0.616385221481
1586442015.18,9.57962608337,15.5932674408,-165.333602905,-2.68058896065,1.50742387772,9.54836082458,0,0,0,-2.20810481908,7.43971487391,0.923120499256,23.03,0.00203369068793,-0.00184251315106,0.00135197526736,-0.694255590439,-0.237780854106,-0.000402331410442,0.333115339279,-0.757800340652,-0.730841398239
1586442015.6,-0.946543514729,12.55194664,-169.117248535,-1.92766785622,0.0500195175409,9.32460689545,-1.9043,6.5906,0.222970017415,-2.14829123984,7.29662267052,0.687827115382,23.01,0.002200002161,-0.0013984006182,0.00102070953706,0.00053271651268,0.0923998728395,-0.171028092504,0.332028865814,-0.618421316147,-0.856311321259
1586442015.86,-1.46870517731,13.4899015427,-169.885955811,-1.8979665041,0.110984615982,9.30024337769,0,0,0,-2.18836502165,7.27218787278,0.680664935822,23.03,0.0022808568033,-0.00132001160204,0.000969482848047,-0.0563465096056,0.0410974025726,0.0501707233489,0.350602388382,-0.611290693283,-0.855001926422
1586442016.11,-2.40660309792,13.1366767883,-168.795562744,-1.79820990562,-1.09213352203,9.39328861237,0,0,0,-2.28728001736,7.30573804081,0.706121068758,23.03,0.0023484818433,-0.00144297917661,0.000943393081318,0.0258155185729,-0.117127604783,0.0327177271247,0.341527462006,-0.595604419708,-0.865810155869
1586442016.37,0.457546800375,11.953543663,-170.07421875,-1.69141423702,-0.30756765604,9.10405921936,0,0,0,-2.37413137294,7.33470901268,0.694103036574,23.03,0.00240618488819,-0.00150604376058,0.000847518372189,0.446399331093,-0.0637441948056,-0.216703146696,0.331692934036,-0.632260799408,-0.840813398361
1586442016.8,12.1639137268,11.6346721649,-174.09046936,-2.07796931267,1.82725155354,9.61565494537,0,0,0,-2.42680699216,7.36542832886,0.758772834519,23.02,0.00238238372773,-0.00154826394272,0.00089286998249,0.524141669273,0.000580400344916,0.137376084924,0.353434801102,-0.777631521225,-0.693100214005
1586442017.06,18.4668121338,10.8156452179,-173.021072388,-1.90965342522,3.07531690598,9.58428955078,0,0,0,-2.44409589248,7.36500752696,0.824491110853,23.02,0.00236822861084,-0.00154877047142,0.000980734254179,0.446950733662,-0.0955164656043,0.0693433135748,0.325135231018,-0.851453781128,-0.611112833023
1586442017.31,22.3073940277,9.2412776947,-173.568283081,-1.68030822277,3.49024271965,9.12899875641,0,0,0,-2.47662601212,7.38620777742,0.871161528989,23.03,0.0023436227448,-0.00158862627694,0.00101587773432,0.322111696005,-0.179754167795,-0.0282421670854,0.302424669266,-0.887844562531,-0.561327457428
1586442017.57,27.0952129364,7.14111852646,-174.897186279,-0.929985821247,4.78536128998,8.68513298035,0,0,0,-2.51127843856,7.35018845639,0.887965495585,23.03,0.00240603898898,-0.00151373990206,0.00101519679146,0.478389203548,-0.242142423987,-0.00203400896862,0.284770965576,-0.929968595505,-0.491824626923
1586442018.0,31.3692398071,0.411962628365,-179.578109741,-0.280998766422,4.84513044357,8.57172298431,0,0,0,-2.56426029584,7.38991091388,0.955020947682,23.01,0.00235892155731,-0.00157165527637,0.00105674434858,-0.537796378136,-0.0538781397045,-0.248400911689,0.23290348053,-0.96902680397,-0.437245607376
1586442018.26,22.9655780792,3.33816766739,176.893417358,-0.752189159393,3.77751040459,9.19426345825,0,0,0,-2.58243659189,7.41264513533,1.00009831783,23.02,0.00232187955833,-0.00158545217151,0.00109264066873,-0.91073101759,0.222231537104,-0.460529536009,0.311722517014,-0.887563467026,-0.560261011124
