Timestamp,Roll,Pitch,Yaw,Acc_X,Acc_Y,Acc_Z,USBL_X,USBL_Y,Depth,Est_X,Est_Y,Est_Z,Temp,State_6,State_7,State_8,Gyro_X,Gyro_Y,Gyro_Z,Mag_X,Mag_Y,Mag_Z
1586422808.43,0.477677494287,6.14080524445,7.67272996902,0,0,0,-1.6196,3.6014,0.560893466031,-1.6196,3.6014,0.560893466031,26.74,0,0,0,,,,,,
1586422808.48,38.6756973267,-2.77950692177,-107.972946167,0.44564846158,6.13207530975,7.68009662628,0,0,0,-1.6196,3.6014,-0.56089346603,26.81,-3.02627990426e-06,6.40940022009e-07,2.7369390133e-06,0.00668969145045,0.00157039635815,-0.00703334948048,-0.652707576752,-0.612245798111,-0.507549524307
1586422808.74,9.71114826202,13.387799263,144.803436279,-2.26994371414,1.94983708858,9.67517375946,0,0,0,-1.61960034469,3.60139884656,-0.560892570439,26.65,-2.78464483609e-06,3.48070714789e-05,2.93815093029e-05,-0.437147587538,0.203966349363,0.0186784360558,0.49757194519,-0.58235001564,-0.654322862625
1586422809.0,9.23711204529,13.6761608124,144.869979858,-2.34435772896,1.81670856476,9.63942050934,0,0,0,-1.61960252572,3.60139159718,-0.560887038716,26.56,-5.21562310726e-06,6.37839866469e-05,5.24115267244e-05,-0.428879410028,0.255506575108,0.0164618920535,0.499823570251,-0.57909655571,-0.659239053726
1586422809.25,5.21248626709,16.6181907654,145.353485107,-2.73528122902,1.20224273205,9.40489196777,0,0,0,-1.61961216404,3.6013741007,-0.560875963959,26.47,2.07013668917e-06,9.92486341723e-05,5.64535024027e-05,-0.154911011457,0.183463335037,0.0154225183651,0.531978368759,-0.53058552742,-0.677185773849
1586422809.51,2.97545480728,19.0597667694,146.716690063,-3.0581946373,0.446761339903,9.1970205307,0,0,0,-1.61962629443,3.60136052762,-0.560861729576,26.39,1.71136006341e-05,9.5673991253e-05,4.96286519712e-05,-0.237029507756,0.118766948581,0.130609273911,0.555863857269,-0.51283454895,-0.678786754608
1586422809.77,-0.726017475128,19.5185718536,149.977676392,-3.18231296539,0.0348348245025,9.11360931396,0,0,0,-1.61965517406,3.60133293171,-0.560848291079,26.3,2.70934763183e-05,0.000111363863525,3.56144414393e-05,-0.282144665718,-0.0531770586967,0.238230004907,0.53294801712,-0.481021881104,-0.720778226852
1586422810.03,-0.696566581726,17.9381046295,153.233139038,-2.88985300064,-0.145311817527,9.07649803162,0,0,0,-1.6196983986,3.60131292794,-0.560852419468,26.23,4.08911127864e-05,0.000108046344923,8.6084841431e-06,0.0711238086224,-0.161400482059,0.173635646701,0.483434677124,-0.493569612503,-0.740811109543
1586422810.29,0.433539241552,14.5531578064,156.097946167,-2.15382432938,-0.178339034319,9.28178977966,0,0,0,-1.61976532804,3.60133923463,-0.560865448712,26.15,7.35451264156e-05,8.18624008773e-05,-1.40965237949e-05,-0.11541403085,-0.290434956551,0.224255368114,0.413949966431,-0.519594192505,-0.762458324432
1586422810.55,-8.3281621933,8.58129024506,160.809677124,-1.18550503254,-1.40051043034,9.74568462372,0,0,0,-1.61985724122,3.60133925663,-0.560817216761,26.08,0.000102887980261,8.23864686584e-05,1.04868460388e-06,-0.985649526119,-0.540534377098,0.292670339346,0.287482023239,-0.409888744354,-0.883209466934
1586422810.8,-19.1211833954,-0.0349204093218,166.042053223,0.287549167871,-3.12798285484,9.763463974,0,0,0,-1.6199730946,3.60133041515,-0.560660948569,26.0,0.00013269304379,9.15651471361e-05,5.30339244417e-05,-0.330547630787,-0.673831760883,0.117557600141,0.107159137726,-0.229577541351,-0.996921777725
1586422811.06,-16.8242893219,-7.99010133743,170.183898926,1.58373510838,-2.81853723526,9.60079860687,-1.4686,4.0491,0.534137063941,-1.62011812091,3.60133813413,-0.560526384872,25.94,0.000156101052559,9.03493976084e-05,8.49186901981e-05,0.333095401525,-0.541245698929,0.0948663726449,-0.0583369731903,-0.268537998199,-0.989999294281
1586422811.32,-12.1459960938,-14.5951242447,173.386764526,2.37870502472,-1.89967656136,9.31167793274,0,0,0,-1.62022019909,3.60124728259,-0.560471557695,25.86,0.000145975201805,0.000100909207396,8.78009833158e-05,0.364090412855,-0.420837581158,0.0572702623904,-0.190292596817,-0.355320453644,-0.94084072113
1586422811.58,-7.63680315018,-18.486579895,174.168548584,3.0646469593,-0.965844452381,9.3097486496,0,0,0,-1.62036555072,3.60106290646,-0.560374942833,25.8,0.000140868892145,0.000130132659231,9.69290840609e-05,0.260862976313,-0.137349262834,-0.0267773941159,-0.259128332138,-0.432844877243,-0.888453483582
1586422811.84,-5.10323047638,-18.7558765411,174.11378479,3.36011838913,-0.714914858341,9.32194328308,0,0,0,-1.62063726229,3.60094258821,-0.560294162776,25.73,0.000163051144864,0.000142238327352,0.000104073027205,0.0779347643256,0.0389313325286,-0.0233013220131,-0.263778686523,-0.474331140518,-0.867607831955
1586422812.1,-11.372751236,-18.4500427246,173.241546631,3.03289198875,-1.44961106777,8.9624710083,0,0,0,-1.62082176384,3.60057359857,-0.560294778678,25.66,0.000155061283926,0.000184381458651,8.61243585077e-05,-0.651199519634,0.0483858399093,-0.0950148254633,-0.254292726517,-0.38188791275,-0.918128728867
1586422812.35,-20.0313205719,-17.4115562439,171.051971436,2.71112370491,-2.93769979477,8.91213035583,0,0,0,-1.62090291036,3.60022932306,-0.560076665455,25.6,0.000130275215679,0.00021400006452,9.86665600228e-05,-0.605374455452,0.135509327054,-0.119286604226,-0.221734285355,-0.23001909256,-0.98128080368
1586422812.61,-27.1723499298,-16.1012763977,168.074554443,2.57182836533,-4.26800203323,8.78192329407,0,0,0,-1.62102927554,3.60010080747,-0.559600432493,25.54,0.000113695664488,0.000218167604574,0.000142128318955,-0.421559453011,0.180276095867,-0.173734292388,-0.167016983032,-0.0926218032837,-1.02178931236
1586422812.87,-29.0939006805,-15.1443223953,163.505645752,2.40462946892,-4.42871665955,8.27730560303,0,0,0,-1.6211395195,3.59979340799,-0.55935546411,25.48,9.59828709509e-05,0.000237871225494,0.000142048549866,0.0127999167889,0.240400001407,-0.292322576046,-0.111229658127,-0.0391232967377,-1.03693509102
1586422813.12,-24.148475647,-14.2654600143,157.604202271,2.42804169655,-3.91455769539,8.71828842163,0,0,0,-1.62138656076,3.59968673122,-0.559145983414,25.42,9.70591054282e-05,0.00023522666673,0.000146420494156,0.270558595657,0.203530147672,-0.317139863968,-0.0380346775055,-0.100732326508,-1.03077173233
1586422813.38,-20.2798194885,-14.1551074982,152.278915405,2.51602768898,-3.38708281517,9.0702753067,0,0,0,-1.62179665376,3.5997169906,-0.558864329986,25.35,0.000110092553483,0.000225219918582,0.000162608061242,0.0920339301229,0.09253013134,-0.313020735979,0.0146179199219,-0.149770021439,-1.02233839035
1586422813.64,-18.2826766968,-14.5975809097,147.919647217,2.53841853142,-3.12589812279,8.99970340729,-1.7454,3.9803,0.529182174665,-1.62214211839,3.59982676474,-0.558774916427,25.3,0.000118471074703,0.00020692905301,0.000161359033392,0.0766015127301,0.0676835179329,-0.265172600746,0.0498807430267,-0.165286779404,-1.01706147194
1586422813.9,-15.1214704514,-14.7158031464,144.164810181,2.29895734787,-2.42188954353,8.93835735321,0,0,0,-1.62217601433,3.59949893395,-0.558838819274,25.25,9.63927613983e-05,0.00021307712062,0.000135748956311,0.205028697848,0.0646787062287,-0.216679722071,0.0798823833466,-0.197786808014,-1.00474691391
1586422814.15,-12.7549886703,-14.4201087952,140.796127319,2.4517352581,-2.11433982849,9.15561294556,0,0,0,-1.62247509032,3.59936207718,-0.558885528163,25.2,9.72687514572e-05,0.000211240974949,0.000122622080129,-0.0142637686804,0.0699153244495,-0.205269515514,0.118752479553,-0.224586963654,-0.994418382645
1586422814.41,-13.4680566788,-14.2847528458,138.148880005,2.4556145668,-2.46130013466,9.27127456665,0,0,0,-1.62272413166,3.59968371202,-0.558816400746,25.14,0.000101179042861,0.000182894807518,0.000125167039639,-0.0905040875077,0.0289300512522,-0.118016093969,0.141241550446,-0.194571971893,-0.99714589119
1586422814.66,-13.462688446,-14.1468791962,137.084899902,2.30351948738,-2.33574485779,9.36579608917,0,0,0,-1.62285378351,3.5998163802,-0.558468422072,25.1,9.01689675464e-05,0.000168970924493,0.000137980373633,0.0297900307924,0.0228110700846,-0.0351592898369,0.150198221207,-0.184427976608,-1.00133562088
1586422814.94,-12.2087106705,-13.7722997665,136.773452759,2.33139944077,-1.95265877247,9.65621185303,0,0,0,-1.62341095145,3.59980743151,-0.557585189236,25.05,8.95812781319e-05,0.000176291012644,0.00017752404706,0.124574273825,0.052618060261,-0.00674910936505,0.1618309021,-0.204975366592,-0.99222612381
1586422815.19,-10.3180541992,-12.4311962128,136.692749023,2.20095324516,-1.52405309677,9.60138320923,0,0,0,-1.62423968708,3.5995253594,-0.556965826942,25.01,9.99068735836e-05,0.000198803036348,0.00019768515827,0.143753200769,0.103892974555,0.0428961664438,0.181957244873,-0.238673448563,-0.981262922287
1586422815.45,-5.35556316376,-10.8069372177,137.061141968,1.87386631966,-0.741971075535,9.58111572266,0,0,0,-1.62490123525,3.59910245869,-0.556710118143,24.96,0.000103864848576,0.00021734459696,0.000195691426478,0.548352777958,0.107873551548,0.00848044641316,0.203851938248,-0.321388721466,-0.944880962372
1586422815.71,5.63464784622,-9.11041736603,136.745635986,1.62316131592,0.909363508224,9.66250419617,0,0,0,-1.62546739618,3.59911063787,-0.556459358562,24.92,0.000112043558893,0.000212342301712,0.000197931277113,0.839565694332,0.112937897444,-0.0324809029698,0.232830762863,-0.489030361176,-0.853138208389
1586422815.96,19.302274704,-7.08280563354,136.450500488,1.18365561962,3.09436559677,9.33211612701,0,0,0,-1.62576973744,3.59921711096,-0.555835102128,24.88,0.000108884522671,0.000197458932203,0.000214615274949,1.04197824001,0.163340389729,-0.0691052153707,0.26759314537,-0.670101165771,-0.697694778442
1586422816.22,32.122127533,-3.61286497116,137.073257446,0.557699561119,5.07909059525,8.52811050415,-1.6662,3.8965,0.486570126892,-1.62600748775,3.59933264665,-0.554847348374,24.84,0.000103559784958,0.000179251045364,0.000243818531043,0.710910558701,0.274412840605,-0.0687571018934,0.316479921341,-0.802777051926,-0.499835968018
1586422816.48,40.8887519836,0.880200088024,138.771789551,-0.0224632937461,6.324426651,7.75606250763,0,0,0,-1.62676993636,3.59946413671,-0.553581119884,24.81,0.000118970355378,0.000167329475366,0.00028438917289,0.4795794487,0.333082586527,-0.0753355324268,0.369539499283,-0.86282992363,-0.334962129593
1586422816.74,47.9088821411,4.46644020081,141.355621338,-0.618837356567,6.98422050476,6.77334690094,0,0,0,-1.62716287561,3.59997123661,-0.552586737569,24.77,0.000136532750954,0.00013389915616,0.000310326034719,0.510282993317,0.255035758018,-0.0449635721743,0.401821136475,-0.894055604935,-0.194339752197
1586422816.99,56.3135299683,7.30716848373,142.76675415,-1.15233170986,8.18130779266,5.58043003082,0,0,0,-1.62804481414,3.59926365362,-0.551683952108,24.74,0.000148168641381,0.000143791184737,0.000332320791914,0.595877826214,0.138770073652,-0.139359235764,0.427510023117,-0.899569988251,-0.0405848026276
1586422817.25,63.2083320618,10.3816108704,142.780838013,-1.51717782021,8.69037437439,4.48396730423,0,0,0,-1.62941645467,3.59869513704,-0.550976799439,24.7,0.000178858757875,0.000152729878832,0.000348498581834,0.213367000222,0.087498344481,-0.147696256638,0.470212459564,-0.87467455864,0.0887479782104
1586422817.51,62.4496002197,11.6637639999,143.814300537,-1.84491217136,8.60123538971,4.46486473083,0,0,0,-1.63045193844,3.59790483718,-0.550603306638,24.66,0.000195927759356,0.000162507795311,0.000350830681193,-0.208485156298,0.0898668840528,0.0325577445328,0.477922201157,-0.872264146805,0.0894939899445
1586422817.77,59.3907356262,11.3351192474,145.149856567,-1.94914972782,8.19861698151,4.81485462189,0,0,0,-1.63055756084,3.59741506222,-0.55046478811,24.63,0.000193405472649,0.000152223143783,0.000340321660757,-0.229604974389,0.0484166741371,0.0730427131057,0.466803312302,-0.879755496979,0.042222738266
1586422818.03,56.2069816589,10.4966688156,146.011856079,-1.92860162258,7.84490251541,5.3136715889,0,0,0,-1.62996676637,3.59704300305,-0.550113883357,24.6,0.000175917933196,0.000130538754041,0.000333642685266,-0.185003206134,0.00462737120688,0.0831129327416,0.447415351868,-0.890167713165,-0.00857305526733
1586422818.28,55.6600418091,9.5716714859,146.669433594,-1.76041960716,7.83295917511,5.54460382462,0,0,0,-1.62941980295,3.59652191015,-0.549203900841,24.57,0.000159860813484,0.000110849407451,0.000344277438288,0.0532036647201,0.00839177612215,0.0765470713377,0.429201602936,-0.897550344467,-0.0222985744476
1586422818.54,57.3259773254,8.47959518433,147.39616394,-1.48050236702,8.12153339386,5.35428333282,0,0,0,-1.6295323042,3.59567632958,-0.548212408449,24.54,0.000155656778341,0.000104670649724,0.000358536173949,0.142935857177,-0.0177126415074,0.0970514640212,0.401128530502,-0.906402587891,0.00408530235291
1586422818.8,60.5399894714,6.73106336594,147.850067139,-1.08208727837,8.56840324402,4.94358682632,0,0,0,-1.63051301605,3.59439418502,-0.547192086616,24.51,0.000164234915058,0.000115027236555,0.000377422195692,0.247654974461,-0.0468265451491,0.129886567593,0.375217914581,-0.91716170311,0.0526320934296
1586422819.06,63.8600921631,4.59671545029,147.97984314,-0.785310566425,8.92852592468,4.36082601547,0,0,0,-1.63145308644,3.59278697621,-0.546817223732,24.48,0.000164366017738,0.000133590928591,0.000383840087007,0.24243734777,-0.0747748091817,0.127946436405,0.344452381134,-0.924371242523,0.101063251495
1586422819.32,66.7794647217,2.34925985336,147.508590698,-0.38614487648,9.19902610779,4.05767869949,0,0,0,-1.63274409792,3.59061497878,-0.545949639575,24.45,0.000166400210462,0.000157467305301,0.000408188093346,0.146878734231,-0.0993069410324,0.120981246233,0.313216209412,-0.927643299103,0.143958568573
1586422819.58,68.8355560303,0.632662534714,146.961395264,-0.0652901679277,9.20143318176,3.87272620201,0,0,0,-1.63383045186,3.58856274814,-0.544160514593,24.42,0.000171892976891,0.00016384333167,0.000450336721072,0.114558473229,-0.0567141994834,0.0867670550942,0.294002771378,-0.931378126144,0.172778129578
1586422819.84,69.7351760864,-1.09796893597,146.345565796,0.196598336101,9.14769744873,3.54391384125,-1.7623,3.8653,0.434048300568,-1.63456220491,3.58751253754,-0.542866697763,24.4,0.000179005784915,0.000152488785085,0.000467962055475,0.0148894265294,-0.0918913707137,0.0892194136977,0.275897741318,-0.933933496475,0.182830810547
1586422820.09,68.432762146,-2.67608642578,145.250747681,0.302314400673,9.07191562653,3.5493850708,0,0,0,-1.6341771358,3.58632422404,-0.542874729053,24.38,0.000158848747153,0.000146659424758,0.000460896124128,-0.259656190872,-0.11851195991,0.0641925558448,0.257109880447,-0.942307949066,0.15527009964
1586422820.35,63.5251655579,-4.33459043503,143.804244995,0.53537684679,8.62438297272,4.38546228409,0,0,0,-1.63307191008,3.58519531449,-0.542234426647,24.36,0.000132046012012,0.000129085649318,0.000463805002315,-0.329723447561,-0.125477522612,0.0747172683477,0.244222402573,-0.954963684082,0.0626196861267
1586422820.61,58.6855316162,-6.12439346313,142.877487183,0.862342119217,8.16850471497,5.07147741318,0,0,0,-1.63186206205,3.58434602766,-0.541438320895,24.33,0.000107939602265,0.000107155242121,0.0004637351735,-0.304579526186,-0.108051739633,0.0680750608444,0.226446628571,-0.965715885162,-0.0323605537415
1586422820.86,52.10496521,-7.42382669449,141.740097046,1.05987489223,7.88085746765,5.77908182144,0,0,0,-1.63196105153,3.58257689472,-0.542938003084,24.31,8.06331935757e-05,0.000133520479126,0.000437674278701,-0.543914735317,-0.119979843497,-0.00955538358539,0.219972848892,-0.957978963852,-0.153022766113
1586422821.12,44.8120040894,-8.24545478821,140.060974121,1.39930295944,6.973695755,6.74947786331,0,0,0,-1.63314763025,3.58154017819,-0.543470669869,24.29,7.95441618709e-05,0.000150423764159,0.000419062572988,-0.470344871283,-0.115717694163,-0.028845326975,0.216167926788,-0.925887823105,-0.287964820862
1586422821.37,38.1996459961,-9.59357643127,139.140029907,1.79690051079,5.96642923355,7.79265403748,0,0,0,-1.63507790511,3.58037931357,-0.541037893153,24.27,0.000100885543032,0.000148053735665,0.000443906380443,-0.470409959555,-0.0993088632822,0.0534503273666,0.205963850021,-0.885849714279,-0.406472444534
1586422821.63,31.0365772247,-11.3339605331,139.003265381,1.85263061523,4.99195194244,8.28006649017,0,0,0,-1.63553958088,3.57900328392,-0.540102997525,24.25,9.07496831277e-05,0.000152116956316,0.000448510330429,-0.541032493114,-0.111121445894,0.0584176555276,0.183472156525,-0.830825805664,-0.526372432709
1586422821.89,22.6802577972,-13.2635965347,138.725708008,2.22223186493,3.75975227356,8.97341251373,0,0,0,-1.63671490915,3.57703392252,-0.538326583139,24.23,8.6803865366e-05,0.000162324610782,0.000469818889559,-0.579933941364,-0.115354157984,0.0300517715514,0.147405385971,-0.742983579636,-0.65375828743
1586422822.15,16.1816539764,-14.0973186493,138.239028931,2.35927295685,2.66265153885,9.42320346832,0,0,0,-1.63770409998,3.57484828679,-0.535162868776,24.2,8.26101427152e-05,0.000163648035059,0.000507620805033,-0.350587338209,-0.0339403897524,-0.0393811874092,0.138032436371,-0.662164449692,-0.742901563644
1586422822.41,14.6466283798,-14.437833786,136.317321777,2.4470102787,2.27201271057,9.35989379883,-1.7101,3.8017,0.576749111713,-1.63830342871,3.57488839744,-0.532051502592,24.19,8.84673084253e-05,0.000142871649789,0.000524001393633,0.0641090869904,-0.0930026397109,-0.19420388341,0.152354955673,-0.629384994507,-0.771809577942
1586422822.66,17.6661949158,-16.5075588226,131.439620972,2.85538625717,2.74145507812,8.88935375214,0,0,0,-1.63918169532,3.57578242017,-0.530518923772,24.16,9.75013705111e-05,0.000127426777701,0.000513596009986,0.0359053127468,-0.334868431091,-0.270973354578,0.155394792557,-0.641775846481,-0.76290345192
1586422822.92,15.2478923798,-21.8235569,126.197715759,3.55744075775,2.43219614029,8.79025554657,0,0,0,-1.63984542507,3.57473694112,-0.52952462115,24.14,8.51340842787e-05,0.000132326461816,0.000513570858532,-0.579552829266,-0.500274181366,-0.15292878449,0.10680603981,-0.579869508743,-0.818763017654
1586422823.18,6.111951828,-27.1360034943,122.490867615,4.19089651108,1.38444626331,8.89102268219,0,0,0,-1.64202107937,3.56888242337,-0.529444539418,24.13,4.61372537336e-05,0.00019437149195,0.000541760233723,-0.547884464264,-0.21721829474,-0.191215336323,0.0339925289154,-0.414519786835,-0.928728818893
1586422823.44,5.72899961472,-26.3727378845,118.470504761,4.82127380371,1.12981116772,9.08586025238,0,0,0,-1.65025708164,3.56762107221,-0.525212336316,24.11,0.000109437370371,0.000228875835861,0.000587944618468,0.235205858946,0.221158519387,-0.301670521498,0.0650849342346,-0.364264249802,-0.95167517662
1586422823.69,11.1351938248,-20.7654724121,115.001358032,3.84254860878,1.41524899006,8.95843410492,0,0,0,-1.65253860504,3.57238210845,-0.521162349111,24.09,0.000159482911716,0.000179624524855,0.000581616127098,0.0708831846714,0.373872816563,-0.138010546565,0.180427789688,-0.426422119141,-0.904669046402
1586422823.95,4.73438215256,-17.1124782562,116.496742249,2.79160451889,0.459684789181,8.72862911224,0,0,0,-1.6494301041,3.57760633624,-0.523944545653,24.07,0.000146191433702,0.000136080526571,0.000495811756873,-0.476246505976,0.142526209354,0.197293639183,0.241305112839,-0.337064743042,-0.930705308914
1586422824.21,-0.801248729229,-16.6727848053,119.833221436,2.92910814285,-0.281780153513,9.26968193054,0,0,0,-1.65031990931,3.58052051236,-0.522567270677,24.05,0.000161963153459,0.000115145297504,0.000477537006689,-0.219600722194,-0.0196360088885,0.19873778522,0.228855371475,-0.274777412415,-0.960795640945
1586422824.47,-5.39059066772,-19.9986667633,122.054992676,3.49486875534,-0.541126072407,9.46872901917,0,0,0,-1.65660759912,3.57781988095,-0.519582667005,24.03,0.000181261023069,0.000160569893909,0.000517636891449,-0.223696395755,-0.326029062271,0.0811810269952,0.162770748138,-0.212799549103,-0.988894939423
1586422824.73,-5.8719959259,-23.2342128754,123.621139526,3.81546092033,-0.723405718803,9.1138343811,0,0,0,-1.65988153755,3.57536366303,-0.517802921027,24.02,0.000173342290095,0.000188519439096,0.00053766155293,0.00562574807554,-0.140961304307,0.0551411956549,0.0943334102631,-0.21396613121,-1.00551342964
1586422824.99,-8.23406219482,-23.719285965,123.476722717,3.96860790253,-1.16836643219,8.91521835327,-1.6949,3.662,0.588640845976,-1.66335027994,3.575268718,-0.517147180985,24.0,0.000179911249282,0.000205229498864,0.000535892038062,-0.288451582193,-0.0119280107319,-0.0724092498422,0.0814714431763,-0.172870874405,-1.0124194622
1586422825.25,-11.8430128098,-23.7182121277,122.298912048,4.08999633789,-1.36762011051,9.00912284851,0,0,0,-1.67216226955,3.5716813573,-0.515768840839,23.97,0.000199867699002,0.000272294361264,0.00056618984207,-0.325223594904,0.0377191379666,-0.0575304292142,0.0806891918182,-0.102405071259,-1.01954698563
1586422825.51,-13.8634653091,-23.1959915161,121.622993469,3.91842603683,-1.95463752747,9.11375808716,0,0,0,-1.67811232926,3.56896110991,-0.510991871162,23.96,0.000207280877202,0.000301514705163,0.000616547946482,-0.0784326344728,0.0578554458916,0.00874344259501,0.0986135005951,-0.0544657707214,-1.01905107498
1586422825.77,-11.6047840118,-22.0390834808,120.405441284,3.68935084343,-1.74839556217,9.12856769562,0,0,0,-1.68211725889,3.56766030938,-0.506900373167,23.94,0.000208189337551,0.000313063169359,0.00064745289463,0.132876485586,0.137111797929,-0.12434053421,0.130284070969,-0.0853049755096,-1.01830244064
1586422826.02,-8.40042114258,-20.7511291504,117.972465515,3.37215328217,-1.43932080269,8.99284076691,0,0,0,-1.68191221703,3.56847237038,-0.50560625093,23.93,0.00019316937021,0.0002989537035,0.000635056461263,0.119524307549,0.0915190279484,-0.128420099616,0.166308641434,-0.117497205734,-1.01081418991
1586422826.28,-6.07486200333,-19.9902477264,115.682846069,3.26292252541,-1.11389160156,8.96503639221,0,0,0,-1.68079935037,3.5703234739,-0.505700114183,23.92,0.000179955318597,0.000279147400997,0.00060538875324,0.0224849265069,0.0420736223459,-0.130899295211,0.193195343018,-0.141529321671,-1.00022554398
1586422826.54,-5.94505262375,-19.6708316803,114.171791077,3.37636208534,-0.881132483482,9.17397022247,0,0,0,-1.68480461234,3.57088095726,-0.504433192501,23.9,0.000190416383529,0.000290052580842,0.000602757643788,-0.0797163918614,0.0341473221779,-0.069949798286,0.205390691757,-0.133795499802,-0.997704267502
1586422826.81,-6.76725053787,-19.0985546112,113.557449341,3.35447311401,-0.980731010437,9.24434661865,0,0,0,-1.69047430445,3.57170494129,-0.502565724359,23.88,0.000211141646186,0.000306212097902,0.000607760968892,0.0183993950486,0.0489791892469,0.00065919017652,0.216824769974,-0.109393358231,-0.996289253235
1586422827.06,-3.68329644203,-18.4244441986,113.896156311,2.98348712921,-0.657998144627,9.21786785126,0,0,0,-1.69030320074,3.57175217518,-0.501319333879,23.87,0.000193914092888,0.000297483795598,0.00059692118166,0.255658745766,0.0364100635052,0.0311354231089,0.227246046066,-0.163143634796,-0.986140489578
1586422827.32,-1.82642352581,-17.7614803314,114.352523804,2.7479262352,-0.397173553705,9.29172801971,0,0,0,-1.68791271362,3.5703599799,-0.499445826241,23.86,0.000157967820542,0.000282979528575,0.000589567958647,0.0325443223119,-0.00901371333748,0.0164857152849,0.237018346786,-0.194714069366,-0.973219633102
1586422827.57,-1.61629259586,-19.3375797272,113.679733276,3.13953351974,-0.350157678127,9.5969953537,0,0,0,-1.68897522679,3.5685563178,-0.491063379947,23.84,0.000141771361793,0.000269905187607,0.000639485624771,-0.0155199337751,-0.145800799131,-0.0582724921405,0.217790603638,-0.19820690155,-0.981437921524
1586422827.83,-1.33235442638,-20.2505702972,113.791717529,3.45511507988,-0.263810187578,9.58074760437,0,0,0,-1.69310009872,3.56832963603,-0.481855859114,23.83,0.000150329166774,0.000262527072009,0.00069484611351,0.0141086056828,0.00817980710417,0.0461889468133,0.200194597244,-0.202365398407,-0.984088659286
1586422828.09,-2.55311322212,-19.4048137665,114.867652893,3.5538713932,-0.334851711988,9.36686038971,0,0,0,-1.7012884414,3.57126096849,-0.477645940022,23.81,0.000193716369449,0.000273903481264,0.000712448409088,-0.0756338238716,0.0630317181349,0.0774743035436,0.208059072495,-0.192192792892,-0.984988689423
1586422828.35,-3.3894739151,-18.4421443939,115.685455322,3.21817946434,-0.387593358755,9.07514572144,0,0,0,-1.70692012434,3.57243962113,-0.480317752037,23.8,0.000210555684732,0.00029805206672,0.000679801787611,-0.0374559313059,0.0547969825566,0.0429598689079,0.221313238144,-0.186148881912,-0.985759973526
1586422828.61,-4.06315326691,-18.1721134186,115.899116516,2.92474579811,-0.566420912743,9.16657924652,0,0,0,-1.70851246834,3.57033178088,-0.481140886004,23.79,0.000190203082432,0.000312107900108,0.000659597881964,-0.0472690835595,0.0227322783321,0.0184850730002,0.22372174263,-0.175172805786,-0.986241102219
1586422828.87,-5.8059129715,-17.376121521,116.389595032,3.01663589478,-0.71230840683,9.49074840546,0,0,0,-1.71735941079,3.56840911295,-0.47712265638,23.77,0.000202991262015,0.00034731072937,0.000685421505158,-0.262226223946,0.067081131041,0.0549012944102,0.234039545059,-0.151816606522,-0.986512899399
1586422829.12,-7.44957494736,-15.8336286545,116.248153687,2.62722611427,-1.18032026291,9.37344646454,0,0,0,-1.72022636009,3.56749557895,-0.474604276235,23.75,0.000195348136501,0.000353866546256,0.000687054364785,0.1199567765,0.111757420003,-0.0324029475451,0.259864091873,-0.119181394577,-0.989708185196
1586422829.39,-4.41185474396,-14.4778413773,115.737518311,2.54952025414,-0.730901062489,9.41017723083,-1.6966,3.5889,0.547019776058,-1.72372083714,3.57005299238,-0.474300864294,23.73,0.000209655037615,0.000353339188605,0.000670171783773,0.161336198449,0.0748859792948,-0.0222809631377,0.284055709839,-0.168610811234,-0.97479224205
1586422829.65,-2.71712684631,-13.9716520309,115.166618347,2.55731368065,-0.48156195879,9.52314758301,0,0,0,-1.72885031412,3.57401121053,-0.471107877594,23.73,0.000237806792172,0.00034871242139,0.000671593371578,0.0420553684235,-0.00863038282841,-0.0273637510836,0.298335790634,-0.19375371933,-0.959541320801
1586422829.91,-4.14237451553,-15.2692365646,115.175079346,2.71328020096,-0.589999258518,9.54670619965,0,0,0,-1.73613047084,3.5751545334,-0.466978658764,23.71,0.000257122507639,0.000362732270409,0.000687160009207,-0.149995133281,-0.143583118916,0.00758189847693,0.27908039093,-0.171165466309,-0.972706794739
1586422830.17,-4.7550702095,-17.7141666412,115.891876221,2.92657065392,-0.698461472988,9.46562004089,0,0,0,-1.74088061299,3.5729900952,-0.461520310938,23.69,0.000248043488184,0.000374260877044,0.000709648899521,0.0840841010213,-0.132925838232,0.0426424778998,0.232220888138,-0.160581350327,-0.989331483841
1586422830.42,-4.93453741074,-18.5059223175,116.894889832,2.98632597923,-0.76652520895,9.26305770874,0,0,0,-1.7428406278,3.57062462514,-0.459163057736,23.68,0.000228444425097,0.000379406300645,0.000708183071632,-0.0262405779213,-0.0160086899996,0.0658301785588,0.214000940323,-0.16860127449,-0.990343809128
1586422830.68,-3.99329447746,-18.227104187,117.645690918,3.00475001335,-0.632232666016,9.3870382309,0,0,0,-1.74611163885,3.5691120466,-0.454307887565,23.66,0.000218495243862,0.000381954727054,0.000721534121033,0.139466494322,0.0151073588058,0.0258425287902,0.21243262291,-0.192391633987,-0.985433578491
1586422830.94,-3.40927505493,-18.8223762512,117.543197632,3.10132455826,-0.535033524036,9.46908855438,0,0,0,-1.7502369058,3.56704289815,-0.446644436939,23.65,0.000208485262304,0.000384590408857,0.000751544087032,-0.0192854590714,-0.0654481425881,-0.0289898402989,0.205170631409,-0.199824810028,-0.983962774277
1586422831.19,-2.73026275635,-19.5722122192,117.672676086,3.29086589813,-0.385680735111,9.3514995575,0,0,0,-1.75579020862,3.56603540465,-0.441305823912,23.64,0.000208925060674,0.000392948188523,0.000769148772123,0.131153509021,-0.0336725264788,0.040634162724,0.190109729767,-0.214097976685,-0.983245134354
1586422831.45,-2.44486260414,-19.8455924988,119.002182007,3.51937103271,-0.291998833418,9.27295303345,0,0,0,-1.76535599965,3.56844035302,-0.438126760261,23.63,0.000237843584354,0.000408511938376,0.000776792947207,-0.0530876256526,-0.0242285449058,0.129650354385,0.177771806717,-0.229058265686,-0.981355667114
1586422831.71,-3.58529996872,-19.7490005493,121.15057373,3.3171172142,-0.5245423913,9.08111858368,0,0,0,-1.76944745865,3.56835493946,-0.439163948867,23.61,0.000237941840583,0.000416655562853,0.000755312046593,0.0430708862841,0.0562129616737,0.132627993822,0.166714191437,-0.234628200531,-0.983846187592
1586422831.97,-2.97804522514,-18.6890411377,122.639190674,3.15634274483,-0.54029405117,9.16782093048,0,0,0,-1.77122213259,3.57008020768,-0.438659869508,23.6,0.000239741757015,0.000407670299353,0.000737078445932,0.0330423936248,0.0486975498497,0.0778296887875,0.17674946785,-0.252856016159,-0.979195833206
1586422832.23,-5.69879341125,-18.1217460632,123.455917358,3.20081853867,-0.819073438644,9.44521617889,-1.5839,3.6706,0.549992709624,-1.77571687734,3.57399606425,-0.435206306921,23.59,0.00025902491343,0.000403903268901,0.000742043649921,-0.280583351851,0.0488167703152,0.0356005616486,0.179620981216,-0.21858549118,-0.985720872879
1586422832.48,-7.75719356537,-17.6032657623,123.88621521,3.10798883438,-1.15536725521,9.34884166718,0,0,0,-1.78530469373,3.57559372567,-0.431137344436,23.57,0.000280426606798,0.000420173347175,0.000754249934914,0.0760605633259,-0.00835731904954,0.0499403178692,0.185838699341,-0.181130409241,-0.994370698929
1586422832.74,-5.69913721085,-18.0559310913,125.133605957,3.13207387924,-0.827431559563,9.33606815338,0,0,0,-1.79386301347,3.57614495697,-0.427658179658,23.57,0.000294247726994,0.000435290638766,0.000762100178101,0.157140016556,-0.0455938391387,0.080992102623,0.171277046204,-0.225425243378,-0.982617855072
1586422833.0,-3.63697075844,-18.5983047485,125.881614685,3.05477833748,-0.460591316223,9.23046302795,0,0,0,-1.79946870155,3.57231992048,-0.427125823997,23.55,0.000282472496735,0.000455224348602,0.000753895600867,0.115953572094,-0.023191049695,0.0158278290182,0.155029535294,-0.271837234497,-0.974225759506
1586422833.26,-4.26123094559,-18.6514530182,125.482566833,2.96872758865,-0.692246973515,9.21891880035,0,0,0,-1.80004987267,3.56831836229,-0.425023260706,23.54,0.000256003744017,0.000455044790484,0.000745378937469,-0.138776406646,0.00942181795835,-0.0621810667217,0.158530473709,-0.260897397995,-0.976891279221
1586422833.51,-4.5951795578,-18.2840747833,124.248847961,2.85417580605,-0.940488755703,9.3091802597,0,0,0,-1.79494112933,3.56608667416,-0.418400241318,23.54,0.000220980612993,0.000424960561975,0.000748459004992,0.0144569221884,0.0561984293163,-0.0543322525918,0.170387744904,-0.242578744888,-0.980447292328
1586422833.77,-5.23766374588,-17.2604198456,124.483314514,2.93703341484,-0.981554090977,9.42416381836,0,0,0,-1.7969905697,3.56888375004,-0.410678870443,23.52,0.000224953892751,0.000405217103587,0.000762649224963,-0.0963732600212,0.0559499487281,0.086104683578,0.185916423798,-0.232184886932,-0.984474420547
1586422834.03,-6.64252376556,-17.0904388428,126.478713989,3.1294491291,-0.876349925995,9.61652755737,0,0,0,-1.81464160028,3.57060137276,-0.400459339043,23.52,0.000263410647622,0.000437782301719,0.000809675215542,0.012208708562,-0.00408850610256,0.144175261259,0.17515873909,-0.222819566727,-0.984730243683
1586422834.29,-6.37867975235,-16.4257068634,128.088470459,2.78930997849,-0.818684160709,9.45111370087,0,0,0,-1.82669614596,3.56621767161,-0.395887282638,23.51,0.000265469524637,0.000473484513882,0.000824771611114,0.0606818236411,0.0135140512139,0.0902606323361,0.17692732811,-0.244004249573,-0.978076219559
1586422834.55,-8.52204799652,-16.9715423584,129.966644287,3.04723906517,-1.29712724686,9.3795375824,0,0,0,-1.83882889663,3.56920072181,-0.39042762505,23.5,0.000294351893256,0.000488152468673,0.000840001759823,-0.360233604908,-0.132564947009,0.18485480547,0.156032085419,-0.221350669861,-0.9896235466
1586422834.81,-14.0769014359,-19.2961730957,134.084197998,3.17616057396,-1.99073028564,9.08961486816,-1.4842,3.6917,0.52819119681,-1.83464941096,3.56694959394,-0.390713571654,23.49,0.000269396940401,0.000483982702329,0.000821566561052,-0.0814423337579,-0.217607676983,0.227724298835,0.088987827301,-0.152688741684,-1.01608085632
1586422835.06,-12.2678022385,-20.2173137665,137.99949646,3.70339608192,-1.86186301708,9.17583656311,0,0,0,-1.85065821942,3.57310763505,-0.383199073252,23.48,0.00031757515592,0.000498279705669,0.000848879435874,0.382551312447,0.0096919098869,0.221887201071,0.0392458438873,-0.204775571823,-1.00520634651
1586422835.32,-5.62743186951,-18.5859870911,139.588363647,3.29144906998,-0.758425951004,9.06494808197,0,0,0,-1.86177475819,3.57433199533,-0.388258536057,23.47,0.000342819838435,0.000521756940484,0.000818815503285,0.468063622713,0.0712825655937,0.03580808267,0.0548114776611,-0.330475568771,-0.961289405823
1586422835.58,-0.429425835609,-19.3364772797,137.731262207,3.06232500076,-0.0980373322964,8.9534330368,0,0,0,-1.85853296617,3.56934229605,-0.394359339511,23.47,0.000313552355902,0.000517322992623,0.000770713930802,0.304842352867,-0.1072005108,-0.219156712294,0.0571432113647,-0.406152486801,-0.930911302567
1586422835.84,4.9780664444,-21.0939369202,134.062591553,3.14110517502,0.253574371338,8.96629238129,0,0,0,-1.83659024714,3.56928965443,-0.388756404921,23.46,0.000252681405778,0.000433286488588,0.000746029644928,0.168476492167,-0.151574656367,-0.178289830685,0.0591187477112,-0.472427606583,-0.895004034042
1586422836.1,3.99782848358,-22.5143299103,132.600296021,3.54677438736,0.297991454601,9.32207107544,0,0,0,-1.82926610194,3.56902881968,-0.37012899104,23.45,0.000219685416985,0.00038122616303,0.000789685267216,-0.279515326023,-0.0510703958571,-0.0187452919781,0.0458331108093,-0.452336072922,-0.907471656799
1586422836.36,-0.535449206829,-21.7507553101,133.299453735,3.83251452446,-0.079141408205,9.60787582397,0,0,0,-1.84458231171,3.57313365767,-0.348632932702,23.44,0.000250587307249,0.000382068108984,0.000867611790982,-0.252928316593,0.124831743538,0.0816250666976,0.0521810054779,-0.380353689194,-0.94261431694
1586422836.62,-2.34503388405,-19.4232959747,134.225616455,3.44137859344,-0.253360509872,9.5388174057,0,0,0,-1.86128702845,3.57458999554,-0.33531606631,23.43,0.000278656864232,0.000401692202806,0.000913783953781,0.076703928411,0.162412062287,0.0537427216768,0.0816764831543,-0.355625629425,-0.9490442276
1586422836.87,-0.218162119389,-17.3996219635,135.366622925,3.09460735321,-0.102298565209,9.36742782593,0,0,0,-1.86802718945,3.58091772783,-0.330599615274,23.42,0.000304158332627,0.000390933351777,0.000914026107069,0.137480169535,0.105159185827,0.092705540359,0.102789878845,-0.394983530045,-0.927006959915
1586422837.13,0.0728772804141,-15.920255661,136.885665894,2.73041439056,0.0838254541159,9.3129825592,0,0,0,-1.87465640938,3.58011242362,-0.33184707247,23.41,0.000310199885142,0.000402221445966,0.000893933187173,-0.0127334147692,0.0822329968214,0.0918837413192,0.116664171219,-0.41284942627,-0.920050144196
1586422837.39,-0.485827684402,-15.8763227463,137.828399658,2.75148463249,0.0106106726453,9.48857021332,-1.3975,3.6853,0.538100975362,-1.8547154523,3.58555945808,-0.337953816603,23.4,0.000290067620154,0.000354297419438,0.00084395354862,0.0391548536718,-0.04912019521,0.035162832588,0.109009027481,-0.412484169006,-0.921897411346
1586422837.65,2.05234622955,-16.8763771057,137.691772461,2.99300765991,0.231151610613,9.48919296265,0,0,0,-1.86090334374,3.59206155423,-0.328835273258,23.4,0.000312335023158,0.000338038650108,0.000859821351075,0.187775701284,-0.0478126220405,-0.0400740727782,0.0967366695404,-0.45193696022,-0.904001951218
1586422837.92,4.04906511307,-17.7029914856,136.101104736,2.907964468,0.454526156187,9.24833869934,0,0,0,-1.85609806989,3.59457917837,-0.324302340289,23.39,0.000300714863602,0.000306494545638,0.000847591906483,0.0858390778303,-0.0867653861642,-0.123495623469,0.0924813747406,-0.473429203033,-0.892522096634
1586422838.17,6.90496921539,-18.7431049347,133.612335205,3.14979100227,0.907499074936,9.2044916153,0,0,0,-1.85340182454,3.59960385526,-0.318081609075,23.38,0.000300341363104,0.000274115582346,0.000844020686564,0.128334984183,-0.075412556529,-0.158128574491,0.0935626029968,-0.501847982407,-0.876495361328
1586422838.43,4.70320701599,-18.293132782,132.24130249,3.18077993393,0.656651675701,9.33202934265,0,0,0,-1.85766813556,3.60570121123,-0.310765548529,23.38,0.00031609135613,0.000257355692121,0.00085094480732,-0.38294300437,0.0789942741394,-0.0549871809781,0.107998847961,-0.463585615158,-0.897102832794
1586422838.69,-1.66955852509,-16.6865253448,131.440811157,2.93614196777,-0.360964417458,9.42649650574,0,0,0,-1.86289529847,3.61274562624,-0.304191922342,23.37,0.000334674635412,0.000243656577471,0.000855451091909,-0.48795285821,0.113204419613,-0.0124696781859,0.142387390137,-0.357332229614,-0.946993112564
1586422838.94,-8.9394235611,-15.3730535507,131.19732666,2.64168810844,-1.21457374096,9.43938827515,0,0,0,-1.87861738537,3.6078619543,-0.298845419588,23.36,0.000340609935402,0.000283515315769,0.000869814119006,-0.398883491755,0.0954850167036,-0.0209722798318,0.166243553162,-0.230701446533,-0.987723112106
1586422839.2,-10.0238695145,-14.338517189,130.190856934,2.36547279358,-1.35307049751,9.24343204498,0,0,0,-1.89043681135,3.5982628498,-0.302607086693,23.36,0.000329936541576,0.000330802881955,0.000850832215296,0.249633461237,0.0114625366405,-0.12925606966,0.187705993652,-0.197317361832,-0.989919900894
1586422839.45,1.74383151531,-17.4930000305,126.515472412,2.84903216362,0.022773982957,9.41214561462,0,0,0,-1.88359572523,3.60248703129,-0.291021488686,23.35,0.000314174903914,0.000289674235766,0.000859565051913,0.970645606518,-0.332487106323,-0.275961488485,0.161394119263,-0.364927768707,-0.936581134796
1586422839.72,15.196264267,-21.3730945587,123.106063843,3.4554810524,2.17647767067,9.17587471008,0,0,0,-1.88214887408,3.60297833823,-0.265639463621,23.33,0.000295076445573,0.000255282393799,0.00091620962449,0.625397503376,-0.205384194851,-0.0966334491968,0.119973182678,-0.550440788269,-0.835542201996
1586422839.97,20.298078537,-21.7010478973,122.557556152,3.62097358704,3.1205034256,8.82569217682,0,0,0,-1.88933973703,3.60209332587,-0.246953420104,23.34,0.000293812054791,0.000248566513311,0.000959846139859,0.156294777989,0.0966659113765,0.0208558551967,0.121254205704,-0.624572753906,-0.779759407043
1586422840.23,19.0519561768,-19.481595993,123.88899231,3.2759540081,2.96573591232,8.83139038086,0,0,0,-1.89367672433,3.60242349404,-0.236400613624,23.33,0.000294300135384,0.000239891921346,0.000973511144951,-0.241075187922,0.225730165839,0.000920706021134,0.15038561821,-0.618144989014,-0.781796216965
1586422840.48,11.469162941,-15.6204566956,124.44203186,2.80387616158,1.85439908504,9.26593875885,0,0,0,-1.90245039998,3.60923906755,-0.230936693105,23.33,0.000320288572754,0.000235677787947,0.00097384801376,-0.626527190208,0.241881519556,-0.0538849420846,0.210432291031,-0.514648675919,-0.84542798996
1586422840.74,3.10435652733,-12.607708931,124.533638,2.42822694778,0.558696806431,9.69349479675,-1.4619,3.7449,0.542064886782,-1.87862146459,3.630582952,-0.24764088006,23.32,0.000339776429145,0.000177407784754,0.000907419567356,-0.484529644251,0.169339746237,0.00394676299766,0.257343053818,-0.383957147598,-0.907143354416
1586422841.0,-0.865505993366,-11.9623060226,124.493507385,2.05893826485,0.0402802489698,9.63229370117,0,0,0,-1.89069851736,3.62717486447,-0.242782175814,23.32,0.000343240203062,0.00020526337007,0.000912297873879,-0.06308183074,-0.0445846505463,-0.000397861062083,0.269642114639,-0.315629482269,-0.933851003647
1586422841.26,4.09231042862,-14.1206579208,123.423103333,2.00521230698,1.09161353111,9.23540401459,0,0,0,-1.89504050109,3.60082709405,-0.252420176096,23.31,0.000283156153448,0.000268055321034,0.000872867807798,0.572494208813,-0.276068359613,-0.227901399136,0.245971918106,-0.377881526947,-0.908523321152
1586422841.52,16.0629291534,-21.1098709106,114.753067017,3.75158333778,2.32999014854,8.86685752869,0,0,0,-1.89990381901,3.61522113289,-0.242172751649,23.3,0.000316706233669,0.000236864338483,0.000883243419696,0.881745815277,-0.562683165073,-0.461413234472,0.180598497391,-0.500955581665,-0.864392757416
1586422841.78,31.602186203,-25.9636249542,107.309104919,4.43597126007,4.17074012756,7.74420785904,0,0,0,-1.89501127358,3.63286720732,-0.219832431414,23.3,0.000338769003617,0.000167627089149,0.000918315644256,0.602439343929,-0.439029127359,-0.183997005224,0.121507883072,-0.667488336563,-0.744421482086
1586422842.03,37.8143959045,-29.671169281,102.837257385,4.61897325516,4.9028506279,7.03348875046,0,0,0,-1.88432189504,3.63001700957,-0.193293851106,23.29,0.00030213770883,0.000118227054982,0.000964099088992,0.0161865763366,-0.223562166095,0.034032586962,0.0706210136414,-0.723099946976,-0.69488286972
1586422842.29,34.4035720825,-30.1028881073,104.22467041,4.92118549347,4.97763729095,7.38179397583,0,0,0,-1.90322193803,3.62101412404,-0.171199210179,23.28,0.000301653916359,0.000146094254068,0.00102262078461,-0.141621381044,0.161333948374,0.000713952060323,0.0570466518402,-0.68955373764,-0.728902339935
1586422842.56,33.5838317871,-27.6414756775,105.914741516,4.63103675842,4.88462018967,7.31492137909,0,0,0,-1.91554573377,3.6199104909,-0.162889542399,23.28,0.000313668005015,0.00015765604322,0.00103377146428,0.13317784667,0.116749323905,-0.0450942777097,0.0964674949646,-0.688608169556,-0.72792673111
1586422842.81,32.285282135,-27.6491565704,105.238815308,4.63095283508,4.64726257324,7.42250156403,0,0,0,-1.92482171633,3.62121026241,-0.15333290557,23.27,0.000325632735726,0.000158149141175,0.00104509273265,-0.428465783596,-0.125742837787,0.00594799034297,0.0979106426239,-0.670854091644,-0.741138696671
1586422843.07,30.384223938,-30.0007247925,103.496932983,5.02081012726,4.44299602509,7.43123817444,0,0,0,-1.94232338639,3.6201337823,-0.144750446135,23.27,0.000343269401605,0.000180455653834,0.00106064171614,0.179897144437,-0.225347369909,-0.0373657941818,0.0642018318176,-0.631308555603,-0.787810564041
1586422843.32,36.5918960571,-32.2825088501,100.722885132,5.41627693176,4.84484672546,6.722676754,-1.4699,3.3833,0.564857377451,-1.89730155958,3.60431107734,-0.179888871034,23.26,0.000280041965334,0.000142642394484,0.000961646313212,0.256472349167,-0.21372333169,-0.0817876681685,0.0262959003448,-0.694776535034,-0.730220794678
1586422843.58,39.4378662109,-32.3471565247,96.6103668213,5.28340244293,4.85584497452,6.55198764801,0,0,0,-1.8893717611,3.61386962351,-0.160497179893,23.26,0.000285396909102,8.28098259648e-05,0.000983314283376,-0.120064295828,-0.123329505324,-0.223360672593,0.0321688652039,-0.702303409576,-0.722344875336
1586422843.84,35.9611854553,-30.871181488,95.1051712036,5.16194534302,4.65402841568,7.02259683609,0,0,0,-1.88944153704,3.62385908459,-0.139533430676,23.25,0.000304430935561,3.98626316829e-05,0.00101328979324,-0.401509910822,0.143449664116,-0.0545707009733,0.0638406276703,-0.649655818939,-0.776231050491
1586422844.1,26.3516616821,-28.0098628998,97.5638809204,4.68391370773,3.83575081825,7.82755184174,0,0,0,-1.89688609893,3.6260223003,-0.129469973984,23.24,0.000315519597642,3.82408519166e-05,0.00102252480729,-0.638616681099,0.296633809805,0.0670253783464,0.105622291565,-0.528543710709,-0.862406730652
1586422844.36,19.6480293274,-24.8415546417,99.9046401978,3.88490343094,2.96100258827,7.70174884796,0,0,0,-1.88035642356,3.621462348,-0.156376181903,23.24,0.000280276448029,3.36130607067e-05,0.000920304722358,-0.0981845110655,0.184187874198,0.026542885229,0.155591011047,-0.436899423599,-0.906952857971
1586422844.62,19.5705337524,-24.2818870544,100.024299622,4.33208847046,2.98669219017,8.73435688019,0,0,0,-1.89830461598,3.63262134505,-0.133880412428,23.23,0.000324519076528,3.16959240001e-05,0.00096575752407,0.256663113832,0.0146182319149,-0.0955980569124,0.168278455734,-0.431973695755,-0.902211427689
1586422844.87,23.4018497467,-23.5165500641,98.0522689819,3.98800492287,3.51801991463,8.36303043365,0,0,0,-1.90386666388,3.63611253407,-0.120285330677,23.23,0.000335366082928,2.32384427367e-05,0.000981264846481,0.063593506813,-0.107441864908,-0.15118907392,0.186515331268,-0.478421211243,-0.877489089966
1586422845.14,22.4978961945,-23.7498245239,95.4947280884,3.61382174492,3.54192709923,8.2762670517,0,0,0,-1.90231973176,3.61695529154,-0.115810286782,23.22,0.000283986791341,3.94125321633e-05,0.00097778195832,-0.0985674783587,-0.0898473188281,-0.188922911882,0.188377380371,-0.439598083496,-0.895089626312
1586422845.39,24.3809261322,-24.181810379,92.6654052734,3.95546030998,3.71001410484,8.5517873764,0,0,0,-1.91295844223,3.60885756199,-0.0872507310255,23.21,0.000273968202791,4.16942012683e-05,0.00103789064967,0.169089645147,-0.0457264520228,-0.113750271499,0.185609579086,-0.441114425659,-0.897923469543
1586422845.65,25.776594162,-22.3554153442,92.0617446899,3.8393061161,4.06700563431,8.23087501526,0,0,0,-1.92684894947,3.60908933727,-0.0787285111088,23.21,0.000289939518435,5.9593400003e-05,0.00104647547053,-0.0353753641248,0.155600011349,-0.0925827994943,0.219161510468,-0.460550546646,-0.874450922012
1586422845.9,23.5285816193,-21.048368454,91.1409301758,3.43840909004,3.70226168633,8.23324966431,-1.4078,3.3916,0.573776178148,-1.85914839091,3.57963432452,-0.143479513782,23.2,0.000184189364105,3.41485857711e-05,0.000895245541847,-0.204715549946,-0.00496506830677,-0.0869658067822,0.247444629669,-0.414077043533,-0.892495632172
1586422846.16,23.0110321045,-21.3357257843,88.9777374268,3.52167105675,3.50809645653,8.25679206848,0,0,0,-1.85542787398,3.57913621539,-0.14350907359,23.2,0.000177472410721,2.5148421112e-05,0.000873066993802,0.0135021312162,-0.110528260469,-0.148145154119,0.241498470306,-0.382665395737,-0.908086299896
1586422846.41,25.4716243744,-21.9246921539,85.8284454346,3.76903820038,3.85504579544,8.32572937012,0,0,0,-1.86049478446,3.58283792433,-0.130329632182,23.19,0.000192343606995,1.64535888822e-05,0.000887922020629,0.0934099927545,-0.0923991203308,-0.168614879251,0.234190702438,-0.392288208008,-0.910488605499
1586422846.67,26.2497520447,-21.3023509979,83.591468811,3.89601802826,4.01431179047,8.32557868958,0,0,0,-1.87288102961,3.5962688801,-0.115953968743,23.19,0.000239492577426,1.1632397754e-05,0.000905290832607,0.0110635552555,0.0209121089429,-0.152108117938,0.249096155167,-0.385766744614,-0.911218881607
1586422846.93,24.9917144775,-20.1521282196,82.7869720459,3.74324846268,3.8364508152,8.3414182663,0,0,0,-1.8821098372,3.61376944072,-0.107358042723,23.18,0.000291514584771,3.05303693709e-06,0.000903594134208,-0.184218987823,0.0580368675292,-0.0315483734012,0.265033245087,-0.354854106903,-0.920188188553
1586422847.18,22.1496334076,-19.7810840607,82.7220611572,3.18303632736,3.4503736496,8.55495452881,0,0,0,-1.8798503047,3.60707497751,-0.0996399957835,23.18,0.000271607157054,-1.17218967881e-06,0.0009038071164,-0.115067146719,0.0073378905654,-0.0417143106461,0.275854825974,-0.30592751503,-0.935897827148
1586422847.44,21.8867816925,-20.1710166931,82.0917892456,3.26584768295,3.44024038315,8.74297618866,0,0,0,-1.88378936293,3.59814242107,-0.0820177994943,23.17,0.000254292976516,-1.32138022386e-07,0.000931798636935,-0.0734657049179,-0.0763215199113,0.0193340703845,0.267827033997,-0.296623706818,-0.946036338806
1586422847.7,21.7818965912,-20.7364082336,82.0035400391,3.1835873127,3.71705961227,8.53285980225,0,0,0,-1.89469297204,3.5755504422,-0.0809999223624,23.17,0.000211358125536,4.50777900556e-05,0.000933226776637,0.0893911421299,-0.0104609886184,-0.0354014337063,0.256980895996,-0.291687726974,-0.94629907608
1586422847.96,22.0689182281,-21.7327804565,80.7442626953,3.66804051399,3.51518011093,8.22851276398,0,0,0,-1.89878208109,3.57689474796,-0.0874810153765,23.16,0.000216321535464,5.80511358385e-05,0.000901115051067,0.00318717211485,-0.158153101802,-0.0615742169321,0.243923425674,-0.287718057632,-0.952698230743
1586422848.22,27.2046585083,-23.1476345062,77.3645401001,3.69589734077,3.96327114105,7.94440746307,0,0,0,-1.88846577487,3.5712982443,-0.0822089587352,23.16,0.000192886778275,3.48591117143e-05,0.000889312390448,0.331454068422,-0.158995524049,-0.216622054577,0.210059642792,-0.339435815811,-0.940877914429
1586422848.47,30.7949199677,-24.1128559113,73.1852874756,4.25689458847,4.2470035553,8.10443019867,0,0,0,-1.88914224908,3.5841761669,-0.0436636085726,23.16,0.000229599206812,-1.50443137548e-05,0.000949082755094,-0.166652813554,-0.248402088881,-0.11972565949,0.190416812897,-0.364073038101,-0.93309879303
1586422848.73,28.0530109406,-24.5921020508,71.500793457,4.16014099121,4.28087472916,8.37919902802,0,0,0,-1.90939299393,3.57789398576,-0.00801348766967,23.15,0.000240265204717,-3.03949122392e-06,0.00102294924906,-0.246010035276,0.0737643092871,-0.0179346706718,0.174129724503,-0.302173376083,-0.961625576019
1586422848.99,24.0405864716,-22.4505195618,73.5889587402,3.92500162125,3.9270157814,8.45753479004,0,0,0,-1.93277152321,3.57901526043,0.00672119367653,23.15,0.000266002507229,3.06427745522e-05,0.00104830209379,-0.155976444483,0.212949767709,0.0528620667756,0.21560382843,-0.253036022186,-0.971602201462
1586422849.24,20.6651515961,-20.7361412048,75.346321106,3.58302879333,3.28267168999,8.43771839142,0,0,0,-1.93750042938,3.58535699387,0.0062824547687,23.15,0.000282150575088,3.69223185972e-05,0.0010258017188,-0.23573794961,0.117582686245,0.0638550370932,0.248199224472,-0.210166454315,-0.977382898331
1586422849.5,17.326587677,-19.8748703003,76.08177948,3.25851368904,2.69776368141,8.75754261017,0,0,0,-1.93487009186,3.58244320829,0.0125241358583,23.14,0.000270564971915,2.95311058277e-05,0.00101781520475,-0.0723868757486,0.107594050467,-0.0202473290265,0.266153335571,-0.160511732101,-0.985175848007
1586422849.76,14.867600441,-18.6580047607,76.8957977295,2.98442482948,2.52302074432,9.07637786865,0,0,0,-1.94396580794,3.56963215724,0.0228376599218,23.14,0.000246846757893,5.01847519925e-05,0.00103112332155,-0.141786426306,0.083905659616,0.0225460156798,0.288754463196,-0.124978065491,-0.985131025314
1586422850.02,15.9776973724,-16.4133777618,76.9601516724,2.86381435394,2.62064313889,8.99896240234,0,0,0,-1.94925494826,3.57485099973,0.0286098562061,23.13,0.000260506706177,5.44083281928e-05,0.00102316330791,0.158979609609,0.189439073205,-0.0391915589571,0.327390670776,-0.136289596558,-0.968710184097
1586422850.27,16.7949848175,-13.8669557571,77.4778442383,2.57954263687,2.84669065475,8.95195865631,0,0,0,-1.95816126566,3.58884133304,0.0267633517132,23.13,0.000294947666074,6.80883325668e-05,0.000997215247853,0.0131862265989,0.147850632668,-0.0137116778642,0.374106645584,-0.154078722,-0.950990915298
1586422850.54,18.0271472931,-11.9767398834,77.3295593262,2.2008895874,2.87534713745,8.90639686584,-1.439,3.3526,0.559902488175,-1.86407154814,3.56878941788,-0.0761741864518,23.12,0.000214515086011,1.28773626539e-05,0.000811351205693,0.0941617563367,0.0913152620196,-0.0765118896961,0.407198667526,-0.169027328491,-0.932499885559
1586422850.79,17.7704334259,-11.3684997559,75.9321517944,1.95706880093,2.71242570877,9.03156661987,0,0,0,-1.85211165706,3.57448393983,-0.0714115446196,23.12,0.000218147587623,-1.77106161307e-05,0.000793677113201,-0.145171612501,-0.0677839145064,-0.113663844764,0.413064479828,-0.149340629578,-0.933438777924
1586422851.05,13.6166906357,-12.2553434372,74.9532165527,2.45784330368,2.05265450478,9.25184440613,0,0,0,-1.84833023515,3.59835512895,-0.0609123543637,23.12,0.000270768848096,-4.65088618665e-05,0.000783948282155,-0.595199763775,-0.309935033321,0.0762268528342,0.399780750275,-0.0743446350098,-0.951926469803
1586422851.31,7.30304431915,-20.356924057,75.9995880127,3.23754024506,1.59780025482,9.75295543671,0,0,0,-1.88197413829,3.57503377086,-0.0282471787131,23.12,0.000244588055687,1.23727021516e-05,0.000869497650113,0.0377243570983,-0.36084073782,0.108562663198,0.267035245895,0.0208170413971,-1.00761842728
1586422851.57,8.87052154541,-22.2631320953,77.2164916992,3.72703742981,1.77066159248,9.27360343933,0,0,0,-1.91068442547,3.56677947801,-0.0110159133331,23.11,0.000244833419772,6.34551309392e-05,0.000910293349111,0.214828789234,-0.0608813129365,0.0982614308596,0.227383136749,-0.0188753604889,-1.01417040825
1586422851.83,12.1826000214,-22.4878101349,78.0238113403,3.48632931709,2.131275177,8.6442861557,0,0,0,-1.91674616771,3.55209232368,-0.0224092610184,23.11,0.000206875707969,9.44977617853e-05,0.000879914908749,0.347559183836,0.0693658739328,-0.0537380874157,0.222719430923,-0.0879697799683,-1.00883412361
1586422852.08,17.9498233795,-21.7772884369,76.7286148071,3.72322273254,2.51326489449,8.41055107117,0,0,0,-1.90009798991,3.56402780722,-0.0233090550837,23.11,0.000219319056101,5.32023322808e-05,0.000843928299634,0.295223236084,-0.0424556694925,-0.0933267623186,0.236361980438,-0.172407865524,-0.989795446396
1586422852.34,20.9121055603,-22.0318202972,74.4061660767,3.43432950974,2.84405112267,8.3105840683,0,0,0,-1.87279101593,3.55703104427,-0.0205688767035,23.11,0.000184951658202,-2.94745802155e-06,0.000818294371265,0.0141108427197,-0.0288233216852,-0.14833176136,0.227486133575,-0.205827951431,-0.986181735992
1586422852.6,21.8341350555,-21.6448001862,72.4052352905,3.69847559929,3.02444911003,8.54765224457,0,0,0,-1.85778308335,3.56397498428,0.000208522762309,23.1,0.000196727801379,-5.52332453831e-05,0.000829677952618,0.0220255963504,-0.0195298362523,-0.0622801557183,0.226483345032,-0.201376676559,-0.981779575348
1586422852.85,19.7918167114,-21.3734264374,72.8970947266,3.74677705765,3.2082259655,8.72745227814,0,0,0,-1.87225228399,3.56952226913,0.014991783678,23.1,0.000220839276638,-3.94883871323e-05,0.000847336445389,-0.266705185175,0.0680906996131,0.0464944317937,0.238036155701,-0.170833587646,-0.988093614578
1586422853.12,15.4976615906,-20.5089187622,73.6043243408,3.5635061264,2.37622094154,8.88874149323,-1.5299,3.4782,0.589631823831,-1.80849762939,3.56392130514,-0.0838503422004,23.09,0.000180030074119,-6.75102487832e-05,0.000706129212789,-0.251374781132,0.0304611455649,0.0444891043007,0.253621578217,-0.102766513824,-0.998136281967
1586422853.38,10.6569061279,-21.0802822113,74.9364242554,3.60524368286,1.87995231152,9.21788406372,0,0,0,-1.82455082529,3.56309736227,-0.0687889678275,23.09,0.000189384527529,-4.36627065835e-05,0.000733506092199,-0.266530483961,-0.0439275242388,0.0907095521688,0.246856689453,-0.0303287506104,-1.01038503647
1586422853.64,9.94672870636,-23.0230331421,76.0012359619,3.88580179214,1.7377396822,9.12735652924,0,0,0,-1.84067665553,3.56099787211,-0.0529470036302,23.09,0.000195099420531,-2.08414847319e-05,0.00076262847481,0.259548306465,-0.168885007501,0.0523468703032,0.215165376663,-0.0277128219604,-1.01724600792
1586422853.89,14.7738361359,-24.5426902771,76.2536773682,3.88129138947,2.27558326721,8.85107326508,0,0,0,-1.84502188144,3.54731910606,-0.0362883938439,23.08,0.000168859520011,-2.09472363424e-05,0.000790886866116,0.294336557388,-0.0830103009939,0.00350121525116,0.189873456955,-0.115806818008,-1.01188802719
1586422854.15,16.7707538605,-25.6694202423,75.8121261597,4.37440443039,2.51393079758,8.73212337494,0,0,0,-1.85262477425,3.55002492174,-0.0132543908483,23.08,0.000185041861843,-2.65400063631e-05,0.000824631690763,0.0643191859126,-0.0332403928041,-0.0122837722301,0.165644645691,-0.150732755661,-1.00865602493
1586422854.41,16.7828445435,-24.7459125519,75.8674087524,4.11562538147,2.47249865532,8.46973991394,0,0,0,-1.84911682829,3.55147006072,-0.0073863070812,23.07,0.000186261661519,-3.98525486064e-05,0.000816418120552,-0.0474415831268,0.147420749068,-0.0168159604073,0.180931806564,-0.152556180954,-1.00717449188
1586422854.67,13.9491729736,-21.8020858765,77.7578125,3.84443616867,1.99042761326,8.69143867493,0,0,0,-1.84006030397,3.56615791879,-0.00201591187199,23.07,0.000213656931306,-6.74083638409e-05,0.000796536042996,-0.253687947989,0.244464278221,0.11901319772,0.233015537262,-0.120658636093,-0.998112678528
1586422854.92,7.37322330475,-19.0304985046,80.6033401489,3.46137237549,1.27042758465,9.26437187195,0,0,0,-1.8507286086,3.58006515463,0.010080486062,23.07,0.000248853942882,-5.72028380072e-05,0.00080432987303,-0.514959096909,0.168422654271,0.169112563133,0.287821769714,-0.0345108509064,-0.998874187469
1586422855.18,-0.0194553863257,-17.5238246918,82.8937759399,3.15054798126,0.239986255765,9.52570915222,0,0,0,-1.87174286964,3.58881905574,0.0240666897256,23.07,0.000274877954016,-2.50160649557e-05,0.00082568260132,-0.273968011141,0.074197947979,0.107205890119,0.31462264061,0.0739316940308,-0.990905046463
1586422855.44,0.548737168312,-16.3423519135,83.8960494995,2.89096832275,0.00541904848069,8.69405078888,0,0,0,-1.85561483289,3.60950210163,-0.00703907051471,23.06,0.00029357281966,-3.57119585061e-05,0.000729826442883,0.203464031219,0.0845352336764,0.0313365906477,0.335089683533,0.0574448108673,-0.987100601196
1586422855.7,1.70982670784,-16.3857135773,85.0520019531,2.44943809509,0.270279020071,9.22877120972,-1.432,3.2529,0.570803244582,-1.77189889557,3.53952949003,-0.119137676714,23.06,0.000147046428877,-6.5190332358e-05,0.000586956998904,0.155187234282,-0.0631537288427,0.102763094008,0.338766813278,0.0223350524902,-0.983178853989
1586422855.96,2.93050336838,-18.1879348755,85.7135238647,3.06405711174,0.572016954422,9.51944732666,0,0,0,-1.78149753274,3.5369956773,-0.104839314424,23.06,0.000146761632832,-5.36489928441e-05,0.000611767179232,0.0402884632349,-0.15774782002,-0.0005651267129,0.307558059692,-0.005530834198,-0.99337887764
1586422856.22,4.46079397202,-20.1133766174,85.1469497681,3.53420424461,0.732915639877,9.35248184204,0,0,0,-1.78839307338,3.54350310259,-0.0897034448939,23.06,0.000166633277849,-5.20590173462e-05,0.00063142739426,0.172769144177,-0.108073301613,-0.0371914431453,0.272611618042,-0.0287935733795,-1.00311303139
1586422856.48,8.25878143311,-21.2525291443,84.3394927979,3.46458959579,1.0953181982,9.17835044861,0,0,0,-1.78090085933,3.53866565553,-0.0739315242395,23.05,0.000154988666179,-7.94700135032e-05,0.000647149199859,0.242492437363,-0.0513632036746,-0.0349294506013,0.252291202545,-0.0871803760529,-0.999257564545
1586422856.74,9.18544769287,-21.3316135406,83.9977722168,3.71035528183,0.770211100578,8.6010055542,0,0,0,-1.74190964674,3.555614444,-0.0746043404647,23.05,0.000174234336316,-0.000165810944609,0.000596098337502,-0.17073790729,0.0164294671267,0.0309256874025,0.250876426697,-0.103186607361,-0.999310255051
1586422857.0,3.91993951797,-21.2741718292,85.3515090942,3.68953299522,0.747405707836,9.4399471283,0,0,0,-1.756231607,3.55852802206,-0.0531499973522,23.04,0.000190178186158,-0.000150918615313,0.00063455961089,-0.348551005125,0.0606315508485,0.0872331112623,0.2518658638,-0.0261235237122,-1.01080942154
1586422857.25,-0.638938486576,-19.3490104675,86.8196182251,3.21715855598,-0.0199958719313,9.30336284637,0,0,0,-1.76222401867,3.55676687511,-0.0464107562614,23.05,0.000185562973635,-0.000140322897153,0.000639874224791,-0.227696165442,0.15734346211,0.0851659327745,0.284942626953,0.0404675006866,-1.00328469276
1586422857.51,-3.54597663879,-18.2237243652,87.3270187378,3.35642290115,-0.541001975536,9.48100852966,0,0,0,-1.77109231483,3.57198469466,-0.0287128710188,23.04,0.00022246264215,-0.000136372522482,0.000661408095184,-0.173021882772,0.0164860915393,0.000505708332639,0.304944515228,0.0827395915985,-0.998321056366
1586422857.77,-4.8977098465,-18.1479473114,86.6746444702,3.45670843124,-0.580681085587,9.64026260376,0,0,0,-1.79389611852,3.59104015606,-0.00426318801739,23.04,0.000273750445692,-0.000109655016512,0.000704069537079,-0.109881155193,-0.00347718619741,-0.0508967787027,0.304595470428,0.119854450226,-0.993313074112
1586422858.02,-5.84378767014,-18.0394382477,85.5341491699,2.97323107719,-0.714301049709,9.07773685455,0,0,0,-1.80358663361,3.59060546851,-0.0143796373612,23.04,0.000265039453703,-7.88299289861e-05,0.000677976453182,-0.0109266489744,0.0407902561128,-0.068841509521,0.305206775665,0.150281667709,-0.989394903183
